[
  {
    "id": "fire-1854-0000",
    "date": "1854-08-04",
    "date_fin": "1854-08-09",
    "commune": "Massif des Maures",
    "departement": "Var",
    "lieu_dit": "Massif des Maures",
    "lat": 43.3,
    "lon": 6.35,
    "surface_ha": 4000,
    "cause": "inconnue",
    "duree_jours": 6,
    "perimetre_geojson": null,
    "source": "web",
    "notes": "Incendie du 4 au 9 août 1854. Archives historiques.",
    "annee": 1854
  },
  {
    "id": "fire-1877-0001",
    "date": "1877-09-01",
    "date_fin": "1877-09-05",
    "commune": "Massif des Maures",
    "departement": "Var",
    "lieu_dit": "Massif des Maures",
    "lat": 43.3,
    "lon": 6.35,
    "surface_ha": 10000,
    "cause": "inconnue",
    "duree_jours": 5,
    "perimetre_geojson": null,
    "source": "web",
    "notes": "Du 1er au 5 septembre 1877. 10 000 hectares.",
    "annee": 1877
  },
  {
    "id": "fire-1918-0002",
    "date": "1918-07-20",
    "date_fin": "1918-07-29",
    "commune": "Saint-Raphaël",
    "departement": "Var",
    "lieu_dit": "De Saint-Raphaël à Mandelieu",
    "lat": 43.45,
    "lon": 6.85,
    "surface_ha": 10000,
    "cause": "inconnue",
    "duree_jours": 10,
    "perimetre_geojson": null,
    "source": "web",
    "notes": "20-29 juillet 1918. 10 000 ha. 2 morts.",
    "annee": 1918
  },
  {
    "id": "fire-1921-0003",
    "date": "1921-07-26",
    "date_fin": "1921-07-30",
    "commune": "Massif de l'Estérel",
    "departement": "Var",
    "lieu_dit": "Massif de l'Estérel",
    "lat": 43.48,
    "lon": 6.8,
    "surface_ha": 10000,
    "cause": "inconnue",
    "duree_jours": 5,
    "perimetre_geojson": null,
    "source": "web",
    "notes": "26-30 juillet 1921. 10 000 hectares.",
    "annee": 1921
  },
  {
    "id": "fire-1923-0004",
    "date": "1923-08-19",
    "date_fin": null,
    "commune": "Massif de l'Estérel",
    "departement": "Var",
    "lieu_dit": "Massif de l'Estérel",
    "lat": 43.48,
    "lon": 6.8,
    "surface_ha": 3000,
    "cause": "inconnue",
    "duree_jours": null,
    "perimetre_geojson": null,
    "source": "web",
    "notes": "19 août 1923. 8 morts. Surface estimée.",
    "annee": 1923
  },
  {
    "id": "fire-1927-0005",
    "date": "1927-08-15",
    "date_fin": null,
    "commune": "Massif de l'Estérel",
    "departement": "Var",
    "lieu_dit": "Massif de l'Estérel",
    "lat": 43.48,
    "lon": 6.8,
    "surface_ha": 10000,
    "cause": "inconnue",
    "duree_jours": null,
    "perimetre_geojson": null,
    "source": "web",
    "notes": "15 août 1927. 10 000 hectares.",
    "annee": 1927
  },
  {
    "id": "fire-1943-0006",
    "date": "1943-07-07",
    "date_fin": null,
    "commune": "Massif de l'Estérel",
    "departement": "Var",
    "lieu_dit": "Massif de l'Estérel",
    "lat": 43.48,
    "lon": 6.8,
    "surface_ha": 13000,
    "cause": "inconnue",
    "duree_jours": null,
    "perimetre_geojson": null,
    "source": "web",
    "notes": "7 juillet 1943. 13 000 hectares.",
    "annee": 1943
  },
  {
    "id": "fire-1950-0007",
    "date": "1950-08-10",
    "date_fin": null,
    "commune": "Massif des Maures",
    "departement": "Var",
    "lieu_dit": "Massif des Maures",
    "lat": 43.3,
    "lon": 6.38,
    "surface_ha": 2500,
    "cause": "inconnue",
    "duree_jours": null,
    "perimetre_geojson": null,
    "source": "estimee",
    "notes": "Incendie de 1950. Surface estimée.",
    "annee": 1950
  },
  {
    "id": "fire-1955-0008",
    "date": "1955-07-20",
    "date_fin": null,
    "commune": "Massif de l'Estérel",
    "departement": "Var",
    "lieu_dit": "Massif de l'Estérel",
    "lat": 43.48,
    "lon": 6.8,
    "surface_ha": 3000,
    "cause": "inconnue",
    "duree_jours": null,
    "perimetre_geojson": null,
    "source": "estimee",
    "notes": "Incendie de 1955. Surface estimée.",
    "annee": 1955
  },
  {
    "id": "fire-1958-0009",
    "date": "1958-08-05",
    "date_fin": null,
    "commune": "Collobrières",
    "departement": "Var",
    "lieu_dit": "Massif des Maures",
    "lat": 43.2378,
    "lon": 6.3097,
    "surface_ha": 1500,
    "cause": "inconnue",
    "duree_jours": null,
    "perimetre_geojson": null,
    "source": "estimee",
    "notes": "Incendie de 1958. Surface estimée.",
    "annee": 1958
  },
  {
    "id": "fire-1960-0010",
    "date": "1960-07-15",
    "date_fin": null,
    "commune": "Grimaud",
    "departement": "Var",
    "lieu_dit": "Massif des Maures",
    "lat": 43.2744,
    "lon": 6.5211,
    "surface_ha": 2000,
    "cause": "inconnue",
    "duree_jours": null,
    "perimetre_geojson": null,
    "source": "estimee",
    "notes": "Incendie de 1960. Surface estimée.",
    "annee": 1960
  },
  {
    "id": "fire-1962-0011",
    "date": "1962-08-20",
    "date_fin": null,
    "commune": "Fréjus",
    "departement": "Var",
    "lieu_dit": "Massif de l'Estérel",
    "lat": 43.4328,
    "lon": 6.7356,
    "surface_ha": 1800,
    "cause": "inconnue",
    "duree_jours": null,
    "perimetre_geojson": null,
    "source": "estimee",
    "notes": "Incendie de 1962. Surface estimée.",
    "annee": 1962
  },
  {
    "id": "fire-1965-0012",
    "date": "1965-07-28",
    "date_fin": null,
    "commune": "Bormes-les-Mimosas",
    "departement": "Var",
    "lieu_dit": "Massif des Maures",
    "lat": 43.1519,
    "lon": 6.3417,
    "surface_ha": 2200,
    "cause": "inconnue",
    "duree_jours": null,
    "perimetre_geojson": null,
    "source": "estimee",
    "notes": "Incendie de 1965. Surface estimée.",
    "annee": 1965
  },
  {
    "id": "fire-1967-0013",
    "date": "1967-08-12",
    "date_fin": null,
    "commune": "Saint-Raphaël",
    "departement": "Var",
    "lieu_dit": "Massif de l'Estérel",
    "lat": 43.4253,
    "lon": 6.7683,
    "surface_ha": 1500,
    "cause": "inconnue",
    "duree_jours": null,
    "perimetre_geojson": null,
    "source": "estimee",
    "notes": "Incendie de 1967. Surface estimée.",
    "annee": 1967
  },
  {
    "id": "fire-1970-0014",
    "date": "1970-10-03",
    "date_fin": null,
    "commune": "Tanneron",
    "departement": "Var",
    "lieu_dit": "Massif du Tanneron",
    "lat": 43.5903,
    "lon": 6.8758,
    "surface_ha": 500,
    "cause": "inconnue",
    "duree_jours": null,
    "perimetre_geojson": null,
    "source": "estimee",
    "notes": "3 octobre 1970. Incendie Auribeau/Tanneron. Surface estimée.",
    "annee": 1970
  },
  {
    "id": "fire-1971-0015",
    "date": "1971-08-15",
    "date_fin": null,
    "commune": "La Garde-Freinet",
    "departement": "Var",
    "lieu_dit": "Massif des Maures",
    "lat": 43.3181,
    "lon": 6.47,
    "surface_ha": 1200,
    "cause": "inconnue",
    "duree_jours": null,
    "perimetre_geojson": null,
    "source": "estimee",
    "notes": "Incendie de 1971. Surface estimée.",
    "annee": 1971
  },
  {
    "id": "fire-1972-0016",
    "date": "1972-07-10",
    "date_fin": null,
    "commune": "Le Muy",
    "departement": "Var",
    "lieu_dit": "Massif des Maures",
    "lat": 43.4736,
    "lon": 6.5672,
    "surface_ha": 800,
    "cause": "inconnue",
    "duree_jours": null,
    "perimetre_geojson": null,
    "source": "estimee",
    "notes": "Incendie de 1972. Surface estimée.",
    "annee": 1972
  },
  {
    "id": "fire-1973-0017",
    "date": "1973-07-04",
    "date_fin": null,
    "commune": "Pignans",
    "departement": "Var",
    "lieu_dit": null,
    "lat": 43.2845,
    "lon": 6.2124,
    "surface_ha": 210,
    "cause": "naturelle",
    "duree_jours": 1,
    "perimetre_geojson": null,
    "source": "estimee",
    "notes": "Estimation basée sur les statistiques annuelles Prométhée (~2500 ha en 1973).",
    "annee": 1973
  },
  {
    "id": "fire-1973-0018",
    "date": "1973-07-07",
    "date_fin": null,
    "commune": "Collobrières",
    "departement": "Var",
    "lieu_dit": null,
    "lat": 43.2533,
    "lon": 6.2893,
    "surface_ha": 61,
    "cause": "humaine-volontaire",
    "duree_jours": null,
    "perimetre_geojson": null,
    "source": "estimee",
    "notes": "Estimation basée sur les statistiques annuelles Prométhée (~2500 ha en 1973).",
    "annee": 1973
  },
  {
    "id": "fire-1973-0019",
    "date": "1973-07-22",
    "date_fin": null,
    "commune": "Grimaud",
    "departement": "Var",
    "lieu_dit": null,
    "lat": 43.2975,
    "lon": 6.5128,
    "surface_ha": 626,
    "cause": "humaine-accidentelle",
    "duree_jours": 1,
    "perimetre_geojson": null,
    "source": "estimee",
    "notes": "Estimation basée sur les statistiques annuelles Prométhée (~2500 ha en 1973).",
    "annee": 1973
  },
  {
    "id": "fire-1973-0020",
    "date": "1973-07-28",
    "date_fin": null,
    "commune": "Cogolin",
    "departement": "Var",
    "lieu_dit": null,
    "lat": 43.2805,
    "lon": 6.5219,
    "surface_ha": 317,
    "cause": "humaine-accidentelle",
    "duree_jours": 1,
    "perimetre_geojson": null,
    "source": "estimee",
    "notes": "Estimation basée sur les statistiques annuelles Prométhée (~2500 ha en 1973).",
    "annee": 1973
  },
  {
    "id": "fire-1973-0021",
    "date": "1973-08-01",
    "date_fin": null,
    "commune": "Ramatuelle",
    "departement": "Var",
    "lieu_dit": null,
    "lat": 43.2185,
    "lon": 6.5954,
    "surface_ha": 337,
    "cause": "humaine-volontaire",
    "duree_jours": 1,
    "perimetre_geojson": null,
    "source": "estimee",
    "notes": "Estimation basée sur les statistiques annuelles Prométhée (~2500 ha en 1973).",
    "annee": 1973
  },
  {
    "id": "fire-1973-0022",
    "date": "1973-08-04",
    "date_fin": null,
    "commune": "Tanneron",
    "departement": "Var",
    "lieu_dit": null,
    "lat": 43.5809,
    "lon": 6.8617,
    "surface_ha": 277,
    "cause": "naturelle",
    "duree_jours": 1,
    "perimetre_geojson": null,
    "source": "estimee",
    "notes": "Estimation basée sur les statistiques annuelles Prométhée (~2500 ha en 1973).",
    "annee": 1973
  },
  {
    "id": "fire-1973-0023",
    "date": "1973-08-15",
    "date_fin": null,
    "commune": "Esparron-de-Verdon",
    "departement": "Alpes-de-Haute-Provence",
    "lieu_dit": null,
    "lat": 43.7684,
    "lon": 5.9758,
    "surface_ha": 159,
    "cause": "inconnue",
    "duree_jours": 1,
    "perimetre_geojson": null,
    "source": "estimee",
    "notes": "Estimation basée sur les statistiques annuelles Prométhée (~600 ha en 1973).",
    "annee": 1973
  },
  {
    "id": "fire-1973-0024",
    "date": "1973-08-16",
    "date_fin": null,
    "commune": "Esparron-de-Verdon",
    "departement": "Alpes-de-Haute-Provence",
    "lieu_dit": null,
    "lat": 43.7262,
    "lon": 5.9901,
    "surface_ha": 133,
    "cause": "humaine-volontaire",
    "duree_jours": 1,
    "perimetre_geojson": null,
    "source": "estimee",
    "notes": "Estimation basée sur les statistiques annuelles Prométhée (~600 ha en 1973).",
    "annee": 1973
  },
  {
    "id": "fire-1973-0025",
    "date": "1973-08-20",
    "date_fin": null,
    "commune": "Collobrières",
    "departement": "Var",
    "lieu_dit": null,
    "lat": 43.2662,
    "lon": 6.3024,
    "surface_ha": 672,
    "cause": "humaine-volontaire",
    "duree_jours": 1,
    "perimetre_geojson": null,
    "source": "estimee",
    "notes": "Estimation basée sur les statistiques annuelles Prométhée (~2500 ha en 1973).",
    "annee": 1973
  },
  {
    "id": "fire-1973-0026",
    "date": "1973-08-27",
    "date_fin": null,
    "commune": "Valensole",
    "departement": "Alpes-de-Haute-Provence",
    "lieu_dit": null,
    "lat": 43.8416,
    "lon": 5.9604,
    "surface_ha": 308,
    "cause": "humaine-accidentelle",
    "duree_jours": 1,
    "perimetre_geojson": null,
    "source": "estimee",
    "notes": "Estimation basée sur les statistiques annuelles Prométhée (~600 ha en 1973).",
    "annee": 1973
  },
  {
    "id": "fire-1974-0027",
    "date": "1974-07-02",
    "date_fin": null,
    "commune": "Le Castellet",
    "departement": "Var",
    "lieu_dit": null,
    "lat": 43.215,
    "lon": 5.7762,
    "surface_ha": 254,
    "cause": "inconnue",
    "duree_jours": 1,
    "perimetre_geojson": null,
    "source": "estimee",
    "notes": "Estimation basée sur les statistiques annuelles Prométhée (~1800 ha en 1974).",
    "annee": 1974
  },
  {
    "id": "fire-1974-0028",
    "date": "1974-07-05",
    "date_fin": null,
    "commune": "Saint-Raphaël",
    "departement": "Var",
    "lieu_dit": null,
    "lat": 43.4401,
    "lon": 6.764,
    "surface_ha": 43,
    "cause": "humaine-volontaire",
    "duree_jours": null,
    "perimetre_geojson": null,
    "source": "estimee",
    "notes": "Estimation basée sur les statistiques annuelles Prométhée (~1800 ha en 1974).",
    "annee": 1974
  },
  {
    "id": "fire-1974-0029",
    "date": "1974-07-21",
    "date_fin": null,
    "commune": "Cuers",
    "departement": "Var",
    "lieu_dit": null,
    "lat": 43.2607,
    "lon": 6.0603,
    "surface_ha": 217,
    "cause": "humaine-volontaire",
    "duree_jours": 1,
    "perimetre_geojson": null,
    "source": "estimee",
    "notes": "Estimation basée sur les statistiques annuelles Prométhée (~1800 ha en 1974).",
    "annee": 1974
  },
  {
    "id": "fire-1974-0030",
    "date": "1974-07-26",
    "date_fin": null,
    "commune": "Corbières-en-Provence",
    "departement": "Alpes-de-Haute-Provence",
    "lieu_dit": null,
    "lat": 43.7831,
    "lon": 5.7288,
    "surface_ha": 100,
    "cause": "inconnue",
    "duree_jours": null,
    "perimetre_geojson": null,
    "source": "estimee",
    "notes": "Estimation basée sur les statistiques annuelles Prométhée (~400 ha en 1974).",
    "annee": 1974
  },
  {
    "id": "fire-1974-0031",
    "date": "1974-08-08",
    "date_fin": null,
    "commune": "Le Castellet",
    "departement": "Var",
    "lieu_dit": null,
    "lat": 43.2016,
    "lon": 5.7418,
    "surface_ha": 221,
    "cause": "inconnue",
    "duree_jours": 1,
    "perimetre_geojson": null,
    "source": "estimee",
    "notes": "Estimation basée sur les statistiques annuelles Prométhée (~1800 ha en 1974).",
    "annee": 1974
  },
  {
    "id": "fire-1974-0032",
    "date": "1974-08-09",
    "date_fin": null,
    "commune": "Puget-sur-Argens",
    "departement": "Var",
    "lieu_dit": null,
    "lat": 43.4519,
    "lon": 6.6709,
    "surface_ha": 358,
    "cause": "humaine-accidentelle",
    "duree_jours": 1,
    "perimetre_geojson": null,
    "source": "estimee",
    "notes": "Estimation basée sur les statistiques annuelles Prométhée (~1800 ha en 1974).",
    "annee": 1974
  },
  {
    "id": "fire-1974-0033",
    "date": "1974-08-12",
    "date_fin": null,
    "commune": "Moustiers-Sainte-Marie",
    "departement": "Alpes-de-Haute-Provence",
    "lieu_dit": null,
    "lat": 43.8623,
    "lon": 6.2071,
    "surface_ha": 300,
    "cause": "inconnue",
    "duree_jours": 1,
    "perimetre_geojson": null,
    "source": "estimee",
    "notes": "Estimation basée sur les statistiques annuelles Prométhée (~400 ha en 1974).",
    "annee": 1974
  },
  {
    "id": "fire-1974-0034",
    "date": "1974-09-19",
    "date_fin": null,
    "commune": "Vidauban",
    "departement": "Var",
    "lieu_dit": null,
    "lat": 43.4472,
    "lon": 6.4272,
    "surface_ha": 707,
    "cause": "naturelle",
    "duree_jours": 1,
    "perimetre_geojson": null,
    "source": "estimee",
    "notes": "Estimation basée sur les statistiques annuelles Prométhée (~1800 ha en 1974).",
    "annee": 1974
  },
  {
    "id": "fire-1975-0035",
    "date": "1975-07-12",
    "date_fin": null,
    "commune": "Sainte-Tulle",
    "departement": "Alpes-de-Haute-Provence",
    "lieu_dit": null,
    "lat": 43.764,
    "lon": 5.7485,
    "surface_ha": 277,
    "cause": "humaine-accidentelle",
    "duree_jours": 1,
    "perimetre_geojson": null,
    "source": "estimee",
    "notes": "Estimation basée sur les statistiques annuelles Prométhée (~800 ha en 1975). Année sèche",
    "annee": 1975
  },
  {
    "id": "fire-1975-0036",
    "date": "1975-07-17",
    "date_fin": null,
    "commune": "Fréjus",
    "departement": "Var",
    "lieu_dit": null,
    "lat": 43.4103,
    "lon": 6.7452,
    "surface_ha": 110,
    "cause": "inconnue",
    "duree_jours": 1,
    "perimetre_geojson": null,
    "source": "estimee",
    "notes": "Estimation basée sur les statistiques annuelles Prométhée (~3200 ha en 1975). Année très sèche",
    "annee": 1975
  },
  {
    "id": "fire-1975-0037",
    "date": "1975-07-21",
    "date_fin": null,
    "commune": "Aups",
    "departement": "Var",
    "lieu_dit": null,
    "lat": 43.6566,
    "lon": 6.2404,
    "surface_ha": 552,
    "cause": "humaine-volontaire",
    "duree_jours": 1,
    "perimetre_geojson": null,
    "source": "estimee",
    "notes": "Estimation basée sur les statistiques annuelles Prométhée (~3200 ha en 1975). Année très sèche",
    "annee": 1975
  },
  {
    "id": "fire-1975-0038",
    "date": "1975-07-25",
    "date_fin": null,
    "commune": "Callas",
    "departement": "Var",
    "lieu_dit": null,
    "lat": 43.5298,
    "lon": 6.5486,
    "surface_ha": 71,
    "cause": "humaine-volontaire",
    "duree_jours": null,
    "perimetre_geojson": null,
    "source": "estimee",
    "notes": "Estimation basée sur les statistiques annuelles Prométhée (~3200 ha en 1975). Année très sèche",
    "annee": 1975
  },
  {
    "id": "fire-1975-0039",
    "date": "1975-08-03",
    "date_fin": null,
    "commune": "Flassans-sur-Issole",
    "departement": "Var",
    "lieu_dit": null,
    "lat": 43.3865,
    "lon": 6.2058,
    "surface_ha": 514,
    "cause": "humaine-accidentelle",
    "duree_jours": 1,
    "perimetre_geojson": null,
    "source": "estimee",
    "notes": "Estimation basée sur les statistiques annuelles Prométhée (~3200 ha en 1975). Année très sèche",
    "annee": 1975
  },
  {
    "id": "fire-1975-0040",
    "date": "1975-08-09",
    "date_fin": null,
    "commune": "Puget-sur-Argens",
    "departement": "Var",
    "lieu_dit": null,
    "lat": 43.4505,
    "lon": 6.6822,
    "surface_ha": 887,
    "cause": "inconnue",
    "duree_jours": 1,
    "perimetre_geojson": null,
    "source": "estimee",
    "notes": "Estimation basée sur les statistiques annuelles Prométhée (~3200 ha en 1975). Année très sèche",
    "annee": 1975
  },
  {
    "id": "fire-1975-0041",
    "date": "1975-08-12",
    "date_fin": null,
    "commune": "Les Mayons",
    "departement": "Var",
    "lieu_dit": null,
    "lat": 43.327,
    "lon": 6.3728,
    "surface_ha": 40,
    "cause": "humaine-volontaire",
    "duree_jours": null,
    "perimetre_geojson": null,
    "source": "estimee",
    "notes": "Estimation basée sur les statistiques annuelles Prométhée (~3200 ha en 1975). Année très sèche",
    "annee": 1975
  },
  {
    "id": "fire-1975-0042",
    "date": "1975-08-24",
    "date_fin": null,
    "commune": "Pignans",
    "departement": "Var",
    "lieu_dit": null,
    "lat": 43.3231,
    "lon": 6.2204,
    "surface_ha": 286,
    "cause": "humaine-accidentelle",
    "duree_jours": 1,
    "perimetre_geojson": null,
    "source": "estimee",
    "notes": "Estimation basée sur les statistiques annuelles Prométhée (~3200 ha en 1975). Année très sèche",
    "annee": 1975
  },
  {
    "id": "fire-1975-0043",
    "date": "1975-08-25",
    "date_fin": null,
    "commune": "Puget-sur-Argens",
    "departement": "Var",
    "lieu_dit": null,
    "lat": 43.4295,
    "lon": 6.6842,
    "surface_ha": 309,
    "cause": "naturelle",
    "duree_jours": 1,
    "perimetre_geojson": null,
    "source": "estimee",
    "notes": "Estimation basée sur les statistiques annuelles Prométhée (~3200 ha en 1975). Année très sèche",
    "annee": 1975
  },
  {
    "id": "fire-1975-0044",
    "date": "1975-08-27",
    "date_fin": null,
    "commune": "Signes",
    "departement": "Var",
    "lieu_dit": null,
    "lat": 43.2819,
    "lon": 5.8351,
    "surface_ha": 332,
    "cause": "inconnue",
    "duree_jours": 1,
    "perimetre_geojson": null,
    "source": "estimee",
    "notes": "Estimation basée sur les statistiques annuelles Prométhée (~3200 ha en 1975). Année très sèche",
    "annee": 1975
  },
  {
    "id": "fire-1975-0045",
    "date": "1975-09-10",
    "date_fin": null,
    "commune": "Peyruis",
    "departement": "Alpes-de-Haute-Provence",
    "lieu_dit": null,
    "lat": 44.0305,
    "lon": 5.9472,
    "surface_ha": 363,
    "cause": "humaine-accidentelle",
    "duree_jours": 1,
    "perimetre_geojson": null,
    "source": "estimee",
    "notes": "Estimation basée sur les statistiques annuelles Prométhée (~800 ha en 1975). Année sèche",
    "annee": 1975
  },
  {
    "id": "fire-1975-0046",
    "date": "1975-09-20",
    "date_fin": null,
    "commune": "Gonfaron",
    "departement": "Var",
    "lieu_dit": null,
    "lat": 43.3005,
    "lon": 6.3169,
    "surface_ha": 99,
    "cause": "inconnue",
    "duree_jours": null,
    "perimetre_geojson": null,
    "source": "estimee",
    "notes": "Estimation basée sur les statistiques annuelles Prométhée (~3200 ha en 1975). Année très sèche",
    "annee": 1975
  },
  {
    "id": "fire-1975-0047",
    "date": "1975-09-22",
    "date_fin": null,
    "commune": "Quinson",
    "departement": "Alpes-de-Haute-Provence",
    "lieu_dit": null,
    "lat": 43.6899,
    "lon": 6.0271,
    "surface_ha": 160,
    "cause": "inconnue",
    "duree_jours": 1,
    "perimetre_geojson": null,
    "source": "estimee",
    "notes": "Estimation basée sur les statistiques annuelles Prométhée (~800 ha en 1975). Année sèche",
    "annee": 1975
  },
  {
    "id": "fire-1976-0048",
    "date": "1976-07-04",
    "date_fin": null,
    "commune": "Cogolin",
    "departement": "Var",
    "lieu_dit": null,
    "lat": 43.2577,
    "lon": 6.5163,
    "surface_ha": 177,
    "cause": "humaine-volontaire",
    "duree_jours": 1,
    "perimetre_geojson": null,
    "source": "estimee",
    "notes": "Estimation basée sur les statistiques annuelles Prométhée (~1500 ha en 1976). Grande sécheresse nationale",
    "annee": 1976
  },
  {
    "id": "fire-1976-0049",
    "date": "1976-07-08",
    "date_fin": null,
    "commune": "Hyères",
    "departement": "Var",
    "lieu_dit": null,
    "lat": 43.1043,
    "lon": 6.1529,
    "surface_ha": 247,
    "cause": "inconnue",
    "duree_jours": 1,
    "perimetre_geojson": null,
    "source": "estimee",
    "notes": "Estimation basée sur les statistiques annuelles Prométhée (~1500 ha en 1976). Grande sécheresse nationale",
    "annee": 1976
  },
  {
    "id": "fire-1976-0050",
    "date": "1976-07-24",
    "date_fin": null,
    "commune": "Cuers",
    "departement": "Var",
    "lieu_dit": null,
    "lat": 43.2114,
    "lon": 6.0806,
    "surface_ha": 326,
    "cause": "humaine-volontaire",
    "duree_jours": 1,
    "perimetre_geojson": null,
    "source": "estimee",
    "notes": "Estimation basée sur les statistiques annuelles Prométhée (~1500 ha en 1976). Grande sécheresse nationale",
    "annee": 1976
  },
  {
    "id": "fire-1976-0051",
    "date": "1976-08-19",
    "date_fin": null,
    "commune": "Saint-Raphaël",
    "departement": "Var",
    "lieu_dit": null,
    "lat": 43.412,
    "lon": 6.7674,
    "surface_ha": 450,
    "cause": "humaine-volontaire",
    "duree_jours": 1,
    "perimetre_geojson": null,
    "source": "estimee",
    "notes": "Estimation basée sur les statistiques annuelles Prométhée (~1500 ha en 1976). Grande sécheresse nationale",
    "annee": 1976
  },
  {
    "id": "fire-1976-0052",
    "date": "1976-08-23",
    "date_fin": null,
    "commune": "Volx",
    "departement": "Alpes-de-Haute-Provence",
    "lieu_dit": null,
    "lat": 43.873,
    "lon": 5.8147,
    "surface_ha": 350,
    "cause": "humaine-accidentelle",
    "duree_jours": 1,
    "perimetre_geojson": null,
    "source": "estimee",
    "notes": "Estimation basée sur les statistiques annuelles Prométhée (~350 ha en 1976).",
    "annee": 1976
  },
  {
    "id": "fire-1976-0053",
    "date": "1976-08-24",
    "date_fin": null,
    "commune": "Vidauban",
    "departement": "Var",
    "lieu_dit": null,
    "lat": 43.4047,
    "lon": 6.429,
    "surface_ha": 248,
    "cause": "humaine-volontaire",
    "duree_jours": 1,
    "perimetre_geojson": null,
    "source": "estimee",
    "notes": "Estimation basée sur les statistiques annuelles Prométhée (~1500 ha en 1976). Grande sécheresse nationale",
    "annee": 1976
  },
  {
    "id": "fire-1977-0054",
    "date": "1977-06-03",
    "date_fin": null,
    "commune": "Ramatuelle",
    "departement": "Var",
    "lieu_dit": null,
    "lat": 43.1917,
    "lon": 6.6213,
    "surface_ha": 730,
    "cause": "humaine-volontaire",
    "duree_jours": 1,
    "perimetre_geojson": null,
    "source": "estimee",
    "notes": "Estimation basée sur les statistiques annuelles Prométhée (~1200 ha en 1977).",
    "annee": 1977
  },
  {
    "id": "fire-1977-0055",
    "date": "1977-08-07",
    "date_fin": null,
    "commune": "Bormes-les-Mimosas",
    "departement": "Var",
    "lieu_dit": null,
    "lat": 43.1775,
    "lon": 6.3626,
    "surface_ha": 268,
    "cause": "humaine-accidentelle",
    "duree_jours": 1,
    "perimetre_geojson": null,
    "source": "estimee",
    "notes": "Estimation basée sur les statistiques annuelles Prométhée (~1200 ha en 1977).",
    "annee": 1977
  },
  {
    "id": "fire-1977-0056",
    "date": "1977-08-18",
    "date_fin": null,
    "commune": "La Croix-Valmer",
    "departement": "Var",
    "lieu_dit": null,
    "lat": 43.1925,
    "lon": 6.594,
    "surface_ha": 202,
    "cause": "humaine-volontaire",
    "duree_jours": 1,
    "perimetre_geojson": null,
    "source": "estimee",
    "notes": "Estimation basée sur les statistiques annuelles Prométhée (~1200 ha en 1977).",
    "annee": 1977
  },
  {
    "id": "fire-1977-0057",
    "date": "1977-08-19",
    "date_fin": null,
    "commune": "Sainte-Tulle",
    "departement": "Alpes-de-Haute-Provence",
    "lieu_dit": null,
    "lat": 43.8053,
    "lon": 5.7818,
    "surface_ha": 300,
    "cause": "inconnue",
    "duree_jours": 1,
    "perimetre_geojson": null,
    "source": "estimee",
    "notes": "Estimation basée sur les statistiques annuelles Prométhée (~300 ha en 1977).",
    "annee": 1977
  },
  {
    "id": "fire-1978-0058",
    "date": "1978-07-11",
    "date_fin": null,
    "commune": "Cogolin",
    "departement": "Var",
    "lieu_dit": null,
    "lat": 43.2374,
    "lon": 6.5254,
    "surface_ha": 694,
    "cause": "humaine-volontaire",
    "duree_jours": 1,
    "perimetre_geojson": null,
    "source": "estimee",
    "notes": "Estimation basée sur les statistiques annuelles Prométhée (~2800 ha en 1978).",
    "annee": 1978
  },
  {
    "id": "fire-1978-0059",
    "date": "1978-07-12",
    "date_fin": null,
    "commune": "Brignoles",
    "departement": "Var",
    "lieu_dit": null,
    "lat": 43.4356,
    "lon": 6.0363,
    "surface_ha": 52,
    "cause": "humaine-accidentelle",
    "duree_jours": null,
    "perimetre_geojson": null,
    "source": "estimee",
    "notes": "Estimation basée sur les statistiques annuelles Prométhée (~2800 ha en 1978).",
    "annee": 1978
  },
  {
    "id": "fire-1978-0060",
    "date": "1978-07-19",
    "date_fin": null,
    "commune": "Flassans-sur-Issole",
    "departement": "Var",
    "lieu_dit": null,
    "lat": 43.3738,
    "lon": 6.2319,
    "surface_ha": 124,
    "cause": "humaine-accidentelle",
    "duree_jours": 1,
    "perimetre_geojson": null,
    "source": "estimee",
    "notes": "Estimation basée sur les statistiques annuelles Prométhée (~2800 ha en 1978).",
    "annee": 1978
  },
  {
    "id": "fire-1978-0061",
    "date": "1978-07-19",
    "date_fin": null,
    "commune": "Les Adrets-de-l'Estérel",
    "departement": "Var",
    "lieu_dit": null,
    "lat": 43.5065,
    "lon": 6.8165,
    "surface_ha": 90,
    "cause": "humaine-volontaire",
    "duree_jours": null,
    "perimetre_geojson": null,
    "source": "estimee",
    "notes": "Estimation basée sur les statistiques annuelles Prométhée (~2800 ha en 1978).",
    "annee": 1978
  },
  {
    "id": "fire-1978-0062",
    "date": "1978-08-03",
    "date_fin": null,
    "commune": "Rians",
    "departement": "Var",
    "lieu_dit": null,
    "lat": 43.6097,
    "lon": 5.7284,
    "surface_ha": 456,
    "cause": "humaine-volontaire",
    "duree_jours": 1,
    "perimetre_geojson": null,
    "source": "estimee",
    "notes": "Estimation basée sur les statistiques annuelles Prométhée (~2800 ha en 1978).",
    "annee": 1978
  },
  {
    "id": "fire-1978-0063",
    "date": "1978-08-11",
    "date_fin": null,
    "commune": "Grimaud",
    "departement": "Var",
    "lieu_dit": null,
    "lat": 43.2783,
    "lon": 6.5101,
    "surface_ha": 344,
    "cause": "humaine-accidentelle",
    "duree_jours": 1,
    "perimetre_geojson": null,
    "source": "estimee",
    "notes": "Estimation basée sur les statistiques annuelles Prométhée (~2800 ha en 1978).",
    "annee": 1978
  },
  {
    "id": "fire-1978-0064",
    "date": "1978-08-12",
    "date_fin": null,
    "commune": "Riez",
    "departement": "Alpes-de-Haute-Provence",
    "lieu_dit": null,
    "lat": 43.8342,
    "lon": 6.087,
    "surface_ha": 281,
    "cause": "inconnue",
    "duree_jours": 1,
    "perimetre_geojson": null,
    "source": "estimee",
    "notes": "Estimation basée sur les statistiques annuelles Prométhée (~500 ha en 1978).",
    "annee": 1978
  },
  {
    "id": "fire-1978-0065",
    "date": "1978-08-19",
    "date_fin": null,
    "commune": "La Garde-Freinet",
    "departement": "Var",
    "lieu_dit": null,
    "lat": 43.3438,
    "lon": 6.4961,
    "surface_ha": 601,
    "cause": "naturelle",
    "duree_jours": 1,
    "perimetre_geojson": null,
    "source": "estimee",
    "notes": "Estimation basée sur les statistiques annuelles Prométhée (~2800 ha en 1978).",
    "annee": 1978
  },
  {
    "id": "fire-1978-0066",
    "date": "1978-08-28",
    "date_fin": null,
    "commune": "Brignoles",
    "departement": "Var",
    "lieu_dit": null,
    "lat": 43.3795,
    "lon": 6.0507,
    "surface_ha": 439,
    "cause": "naturelle",
    "duree_jours": 1,
    "perimetre_geojson": null,
    "source": "estimee",
    "notes": "Estimation basée sur les statistiques annuelles Prométhée (~2800 ha en 1978).",
    "annee": 1978
  },
  {
    "id": "fire-1978-0067",
    "date": "1978-08-28",
    "date_fin": null,
    "commune": "Villeneuve",
    "departement": "Alpes-de-Haute-Provence",
    "lieu_dit": null,
    "lat": 43.8912,
    "lon": 5.861,
    "surface_ha": 219,
    "cause": "humaine-volontaire",
    "duree_jours": 1,
    "perimetre_geojson": null,
    "source": "estimee",
    "notes": "Estimation basée sur les statistiques annuelles Prométhée (~500 ha en 1978).",
    "annee": 1978
  },
  {
    "id": "fire-1979-0068",
    "date": "1979-06-12",
    "date_fin": null,
    "commune": "Plan-de-la-Tour",
    "departement": "Var",
    "lieu_dit": null,
    "lat": 43.333,
    "lon": 6.5515,
    "surface_ha": 12,
    "cause": "humaine-volontaire",
    "duree_jours": null,
    "perimetre_geojson": null,
    "source": "estimee",
    "notes": "Estimation basée sur les statistiques annuelles Prométhée (~5500 ha en 1979). Grand incendie Collobrières ~5000 ha",
    "annee": 1979
  },
  {
    "id": "fire-1979-0069",
    "date": "1979-07-15",
    "date_fin": "1979-07-20",
    "commune": "Collobrières",
    "departement": "Var",
    "lieu_dit": "Massif des Maures",
    "lat": 43.2378,
    "lon": 6.3097,
    "surface_ha": 5000,
    "cause": "inconnue",
    "duree_jours": 5,
    "perimetre_geojson": null,
    "source": "web",
    "notes": "Incendie majeur de 1979 dans les Maures. Surface documentée.",
    "annee": 1979
  },
  {
    "id": "fire-1979-0070",
    "date": "1979-07-16",
    "date_fin": null,
    "commune": "Flassans-sur-Issole",
    "departement": "Var",
    "lieu_dit": null,
    "lat": 43.3812,
    "lon": 6.2036,
    "surface_ha": 2036,
    "cause": "humaine-volontaire",
    "duree_jours": 4,
    "perimetre_geojson": null,
    "source": "estimee",
    "notes": "Estimation basée sur les statistiques annuelles Prométhée (~5500 ha en 1979). Grand incendie Collobrières ~5000 ha",
    "annee": 1979
  },
  {
    "id": "fire-1979-0071",
    "date": "1979-07-26",
    "date_fin": null,
    "commune": "Manosque",
    "departement": "Alpes-de-Haute-Provence",
    "lieu_dit": null,
    "lat": 43.8237,
    "lon": 5.7943,
    "surface_ha": 33,
    "cause": "naturelle",
    "duree_jours": null,
    "perimetre_geojson": null,
    "source": "estimee",
    "notes": "Estimation basée sur les statistiques annuelles Prométhée (~700 ha en 1979).",
    "annee": 1979
  },
  {
    "id": "fire-1979-0072",
    "date": "1979-07-27",
    "date_fin": null,
    "commune": "Aiguines",
    "departement": "Alpes-de-Haute-Provence",
    "lieu_dit": null,
    "lat": 43.7587,
    "lon": 6.24,
    "surface_ha": 334,
    "cause": "humaine-accidentelle",
    "duree_jours": 1,
    "perimetre_geojson": null,
    "source": "estimee",
    "notes": "Estimation basée sur les statistiques annuelles Prométhée (~700 ha en 1979).",
    "annee": 1979
  },
  {
    "id": "fire-1979-0073",
    "date": "1979-08-04",
    "date_fin": null,
    "commune": "Le Cannet-des-Maures",
    "departement": "Var",
    "lieu_dit": null,
    "lat": 43.3736,
    "lon": 6.3396,
    "surface_ha": 49,
    "cause": "humaine-volontaire",
    "duree_jours": null,
    "perimetre_geojson": null,
    "source": "estimee",
    "notes": "Estimation basée sur les statistiques annuelles Prométhée (~5500 ha en 1979). Grand incendie Collobrières ~5000 ha",
    "annee": 1979
  },
  {
    "id": "fire-1979-0074",
    "date": "1979-08-09",
    "date_fin": null,
    "commune": "Le Cannet-des-Maures",
    "departement": "Var",
    "lieu_dit": null,
    "lat": 43.3805,
    "lon": 6.3133,
    "surface_ha": 1333,
    "cause": "inconnue",
    "duree_jours": 2,
    "perimetre_geojson": null,
    "source": "estimee",
    "notes": "Estimation basée sur les statistiques annuelles Prométhée (~5500 ha en 1979). Grand incendie Collobrières ~5000 ha",
    "annee": 1979
  },
  {
    "id": "fire-1979-0075",
    "date": "1979-08-26",
    "date_fin": null,
    "commune": "Valensole",
    "departement": "Alpes-de-Haute-Provence",
    "lieu_dit": null,
    "lat": 43.8256,
    "lon": 5.9864,
    "surface_ha": 333,
    "cause": "humaine-accidentelle",
    "duree_jours": 1,
    "perimetre_geojson": null,
    "source": "estimee",
    "notes": "Estimation basée sur les statistiques annuelles Prométhée (~700 ha en 1979).",
    "annee": 1979
  },
  {
    "id": "fire-1979-0076",
    "date": "1979-08-27",
    "date_fin": null,
    "commune": "Lorgues",
    "departement": "Var",
    "lieu_dit": null,
    "lat": 43.4784,
    "lon": 6.3864,
    "surface_ha": 2033,
    "cause": "naturelle",
    "duree_jours": 4,
    "perimetre_geojson": null,
    "source": "estimee",
    "notes": "Estimation basée sur les statistiques annuelles Prométhée (~5500 ha en 1979). Grand incendie Collobrières ~5000 ha",
    "annee": 1979
  },
  {
    "id": "fire-1979-0077",
    "date": "1979-08-27",
    "date_fin": null,
    "commune": "Les Mayons",
    "departement": "Var",
    "lieu_dit": null,
    "lat": 43.2901,
    "lon": 6.383,
    "surface_ha": 13,
    "cause": "inconnue",
    "duree_jours": null,
    "perimetre_geojson": null,
    "source": "estimee",
    "notes": "Estimation basée sur les statistiques annuelles Prométhée (~5500 ha en 1979). Grand incendie Collobrières ~5000 ha",
    "annee": 1979
  },
  {
    "id": "fire-1979-0078",
    "date": "1979-08-28",
    "date_fin": null,
    "commune": "Pierrefeu-du-Var",
    "departement": "Var",
    "lieu_dit": null,
    "lat": 43.2353,
    "lon": 6.1561,
    "surface_ha": 13,
    "cause": "humaine-volontaire",
    "duree_jours": null,
    "perimetre_geojson": null,
    "source": "estimee",
    "notes": "Estimation basée sur les statistiques annuelles Prométhée (~5500 ha en 1979). Grand incendie Collobrières ~5000 ha",
    "annee": 1979
  },
  {
    "id": "fire-1979-0079",
    "date": "1979-09-07",
    "date_fin": null,
    "commune": "Fréjus",
    "departement": "Var",
    "lieu_dit": null,
    "lat": 43.4567,
    "lon": 6.7534,
    "surface_ha": 11,
    "cause": "inconnue",
    "duree_jours": null,
    "perimetre_geojson": null,
    "source": "estimee",
    "notes": "Estimation basée sur les statistiques annuelles Prométhée (~5500 ha en 1979). Grand incendie Collobrières ~5000 ha",
    "annee": 1979
  },
  {
    "id": "fire-1980-0080",
    "date": "1980-06-16",
    "date_fin": null,
    "commune": "Bargemon",
    "departement": "Var",
    "lieu_dit": null,
    "lat": 43.6004,
    "lon": 6.5635,
    "surface_ha": 329,
    "cause": "humaine-volontaire",
    "duree_jours": 1,
    "perimetre_geojson": null,
    "source": "estimee",
    "notes": "Estimation basée sur les statistiques annuelles Prométhée (~1800 ha en 1980).",
    "annee": 1980
  },
  {
    "id": "fire-1980-0081",
    "date": "1980-07-09",
    "date_fin": null,
    "commune": "Brignoles",
    "departement": "Var",
    "lieu_dit": null,
    "lat": 43.4281,
    "lon": 6.0453,
    "surface_ha": 726,
    "cause": "humaine-volontaire",
    "duree_jours": 1,
    "perimetre_geojson": null,
    "source": "estimee",
    "notes": "Estimation basée sur les statistiques annuelles Prométhée (~1800 ha en 1980).",
    "annee": 1980
  },
  {
    "id": "fire-1980-0082",
    "date": "1980-07-23",
    "date_fin": null,
    "commune": "Blieux",
    "departement": "Alpes-de-Haute-Provence",
    "lieu_dit": null,
    "lat": 43.852,
    "lon": 6.3666,
    "surface_ha": 400,
    "cause": "inconnue",
    "duree_jours": 1,
    "perimetre_geojson": null,
    "source": "estimee",
    "notes": "Estimation basée sur les statistiques annuelles Prométhée (~400 ha en 1980).",
    "annee": 1980
  },
  {
    "id": "fire-1980-0083",
    "date": "1980-07-26",
    "date_fin": null,
    "commune": "Collobrières",
    "departement": "Var",
    "lieu_dit": null,
    "lat": 43.2211,
    "lon": 6.3287,
    "surface_ha": 198,
    "cause": "humaine-volontaire",
    "duree_jours": 1,
    "perimetre_geojson": null,
    "source": "estimee",
    "notes": "Estimation basée sur les statistiques annuelles Prométhée (~1800 ha en 1980).",
    "annee": 1980
  },
  {
    "id": "fire-1980-0084",
    "date": "1980-08-09",
    "date_fin": null,
    "commune": "Fayence",
    "departement": "Var",
    "lieu_dit": null,
    "lat": 43.6497,
    "lon": 6.7137,
    "surface_ha": 232,
    "cause": "inconnue",
    "duree_jours": 1,
    "perimetre_geojson": null,
    "source": "estimee",
    "notes": "Estimation basée sur les statistiques annuelles Prométhée (~1800 ha en 1980).",
    "annee": 1980
  },
  {
    "id": "fire-1980-0085",
    "date": "1980-08-13",
    "date_fin": null,
    "commune": "Le Lavandou",
    "departement": "Var",
    "lieu_dit": null,
    "lat": 43.16,
    "lon": 6.3955,
    "surface_ha": 315,
    "cause": "humaine-accidentelle",
    "duree_jours": 1,
    "perimetre_geojson": null,
    "source": "estimee",
    "notes": "Estimation basée sur les statistiques annuelles Prométhée (~1800 ha en 1980).",
    "annee": 1980
  },
  {
    "id": "fire-1981-0086",
    "date": "1981-06-10",
    "date_fin": null,
    "commune": "Comps-sur-Artuby",
    "departement": "Var",
    "lieu_dit": null,
    "lat": 43.7172,
    "lon": 6.4978,
    "surface_ha": 145,
    "cause": "humaine-volontaire",
    "duree_jours": 1,
    "perimetre_geojson": null,
    "source": "estimee",
    "notes": "Estimation basée sur les statistiques annuelles Prométhée (~2200 ha en 1981).",
    "annee": 1981
  },
  {
    "id": "fire-1981-0087",
    "date": "1981-06-14",
    "date_fin": null,
    "commune": "Comps-sur-Artuby",
    "departement": "Var",
    "lieu_dit": null,
    "lat": 43.6872,
    "lon": 6.5337,
    "surface_ha": 355,
    "cause": "humaine-accidentelle",
    "duree_jours": 1,
    "perimetre_geojson": null,
    "source": "estimee",
    "notes": "Estimation basée sur les statistiques annuelles Prométhée (~2200 ha en 1981).",
    "annee": 1981
  },
  {
    "id": "fire-1981-0088",
    "date": "1981-07-05",
    "date_fin": null,
    "commune": "Rians",
    "departement": "Var",
    "lieu_dit": null,
    "lat": 43.5964,
    "lon": 5.7495,
    "surface_ha": 631,
    "cause": "humaine-volontaire",
    "duree_jours": 1,
    "perimetre_geojson": null,
    "source": "estimee",
    "notes": "Estimation basée sur les statistiques annuelles Prométhée (~2200 ha en 1981).",
    "annee": 1981
  },
  {
    "id": "fire-1981-0089",
    "date": "1981-08-06",
    "date_fin": null,
    "commune": "La Croix-Valmer",
    "departement": "Var",
    "lieu_dit": null,
    "lat": 43.189,
    "lon": 6.5785,
    "surface_ha": 247,
    "cause": "humaine-volontaire",
    "duree_jours": 1,
    "perimetre_geojson": null,
    "source": "estimee",
    "notes": "Estimation basée sur les statistiques annuelles Prométhée (~2200 ha en 1981).",
    "annee": 1981
  },
  {
    "id": "fire-1981-0090",
    "date": "1981-08-08",
    "date_fin": null,
    "commune": "Majastres",
    "departement": "Alpes-de-Haute-Provence",
    "lieu_dit": null,
    "lat": 43.8932,
    "lon": 6.2852,
    "surface_ha": 117,
    "cause": "humaine-volontaire",
    "duree_jours": 1,
    "perimetre_geojson": null,
    "source": "estimee",
    "notes": "Estimation basée sur les statistiques annuelles Prométhée (~500 ha en 1981).",
    "annee": 1981
  },
  {
    "id": "fire-1981-0091",
    "date": "1981-08-21",
    "date_fin": null,
    "commune": "Majastres",
    "departement": "Alpes-de-Haute-Provence",
    "lieu_dit": null,
    "lat": 43.8889,
    "lon": 6.283,
    "surface_ha": 383,
    "cause": "humaine-accidentelle",
    "duree_jours": 1,
    "perimetre_geojson": null,
    "source": "estimee",
    "notes": "Estimation basée sur les statistiques annuelles Prométhée (~500 ha en 1981).",
    "annee": 1981
  },
  {
    "id": "fire-1981-0092",
    "date": "1981-08-24",
    "date_fin": null,
    "commune": "Collobrières",
    "departement": "Var",
    "lieu_dit": null,
    "lat": 43.2079,
    "lon": 6.3352,
    "surface_ha": 429,
    "cause": "humaine-volontaire",
    "duree_jours": 1,
    "perimetre_geojson": null,
    "source": "estimee",
    "notes": "Estimation basée sur les statistiques annuelles Prométhée (~2200 ha en 1981).",
    "annee": 1981
  },
  {
    "id": "fire-1981-0093",
    "date": "1981-09-11",
    "date_fin": null,
    "commune": "Pierrefeu-du-Var",
    "departement": "Var",
    "lieu_dit": null,
    "lat": 43.2386,
    "lon": 6.1279,
    "surface_ha": 291,
    "cause": "humaine-volontaire",
    "duree_jours": 1,
    "perimetre_geojson": null,
    "source": "estimee",
    "notes": "Estimation basée sur les statistiques annuelles Prométhée (~2200 ha en 1981).",
    "annee": 1981
  },
  {
    "id": "fire-1981-0094",
    "date": "1981-09-17",
    "date_fin": null,
    "commune": "Roquebrune-sur-Argens",
    "departement": "Var",
    "lieu_dit": null,
    "lat": 43.4518,
    "lon": 6.6487,
    "surface_ha": 102,
    "cause": "humaine-accidentelle",
    "duree_jours": 1,
    "perimetre_geojson": null,
    "source": "estimee",
    "notes": "Estimation basée sur les statistiques annuelles Prométhée (~2200 ha en 1981).",
    "annee": 1981
  },
  {
    "id": "fire-1982-0095",
    "date": "1982-07-14",
    "date_fin": null,
    "commune": "Cuers",
    "departement": "Var",
    "lieu_dit": null,
    "lat": 43.2084,
    "lon": 6.0865,
    "surface_ha": 195,
    "cause": "inconnue",
    "duree_jours": 1,
    "perimetre_geojson": null,
    "source": "estimee",
    "notes": "Estimation basée sur les statistiques annuelles Prométhée (~3500 ha en 1982). Incendies Gorges du Verdon",
    "annee": 1982
  },
  {
    "id": "fire-1982-0096",
    "date": "1982-07-17",
    "date_fin": null,
    "commune": "Saint-André-les-Alpes",
    "departement": "Alpes-de-Haute-Provence",
    "lieu_dit": null,
    "lat": 43.9833,
    "lon": 6.4847,
    "surface_ha": 126,
    "cause": "inconnue",
    "duree_jours": 1,
    "perimetre_geojson": null,
    "source": "estimee",
    "notes": "Estimation basée sur les statistiques annuelles Prométhée (~800 ha en 1982). Grand incendie Verdon",
    "annee": 1982
  },
  {
    "id": "fire-1982-0097",
    "date": "1982-07-23",
    "date_fin": null,
    "commune": "Flassans-sur-Issole",
    "departement": "Var",
    "lieu_dit": null,
    "lat": 43.3812,
    "lon": 6.2144,
    "surface_ha": 322,
    "cause": "humaine-volontaire",
    "duree_jours": 1,
    "perimetre_geojson": null,
    "source": "estimee",
    "notes": "Estimation basée sur les statistiques annuelles Prométhée (~3500 ha en 1982). Incendies Gorges du Verdon",
    "annee": 1982
  },
  {
    "id": "fire-1982-0098",
    "date": "1982-07-27",
    "date_fin": null,
    "commune": "Manosque",
    "departement": "Alpes-de-Haute-Provence",
    "lieu_dit": null,
    "lat": 43.8093,
    "lon": 5.7754,
    "surface_ha": 83,
    "cause": "humaine-accidentelle",
    "duree_jours": null,
    "perimetre_geojson": null,
    "source": "estimee",
    "notes": "Estimation basée sur les statistiques annuelles Prométhée (~800 ha en 1982). Grand incendie Verdon",
    "annee": 1982
  },
  {
    "id": "fire-1982-0099",
    "date": "1982-08-04",
    "date_fin": null,
    "commune": "Les Mées",
    "departement": "Alpes-de-Haute-Provence",
    "lieu_dit": null,
    "lat": 43.9843,
    "lon": 5.9689,
    "surface_ha": 82,
    "cause": "humaine-volontaire",
    "duree_jours": null,
    "perimetre_geojson": null,
    "source": "estimee",
    "notes": "Estimation basée sur les statistiques annuelles Prométhée (~800 ha en 1982). Grand incendie Verdon",
    "annee": 1982
  },
  {
    "id": "fire-1982-0100",
    "date": "1982-08-07",
    "date_fin": null,
    "commune": "Bormes-les-Mimosas",
    "departement": "Var",
    "lieu_dit": null,
    "lat": 43.1729,
    "lon": 6.3161,
    "surface_ha": 1212,
    "cause": "humaine-volontaire",
    "duree_jours": 2,
    "perimetre_geojson": null,
    "source": "estimee",
    "notes": "Estimation basée sur les statistiques annuelles Prométhée (~3500 ha en 1982). Incendies Gorges du Verdon",
    "annee": 1982
  },
  {
    "id": "fire-1982-0101",
    "date": "1982-08-12",
    "date_fin": "1982-08-15",
    "commune": "Aiguines",
    "departement": "Var",
    "lieu_dit": "Gorges du Verdon",
    "lat": 43.7756,
    "lon": 6.2442,
    "surface_ha": 2500,
    "cause": "inconnue",
    "duree_jours": 3,
    "perimetre_geojson": null,
    "source": "web",
    "notes": "Incendie majeur de 1982 dans les Gorges du Verdon.",
    "annee": 1982
  },
  {
    "id": "fire-1982-0102",
    "date": "1982-08-15",
    "date_fin": null,
    "commune": "Saint-Raphaël",
    "departement": "Var",
    "lieu_dit": null,
    "lat": 43.4272,
    "lon": 6.7718,
    "surface_ha": 232,
    "cause": "humaine-accidentelle",
    "duree_jours": 1,
    "perimetre_geojson": null,
    "source": "estimee",
    "notes": "Estimation basée sur les statistiques annuelles Prométhée (~3500 ha en 1982). Incendies Gorges du Verdon",
    "annee": 1982
  },
  {
    "id": "fire-1982-0103",
    "date": "1982-08-18",
    "date_fin": null,
    "commune": "La Londe-les-Maures",
    "departement": "Var",
    "lieu_dit": null,
    "lat": 43.1451,
    "lon": 6.2476,
    "surface_ha": 292,
    "cause": "humaine-volontaire",
    "duree_jours": 1,
    "perimetre_geojson": null,
    "source": "estimee",
    "notes": "Estimation basée sur les statistiques annuelles Prométhée (~3500 ha en 1982). Incendies Gorges du Verdon",
    "annee": 1982
  },
  {
    "id": "fire-1982-0104",
    "date": "1982-08-18",
    "date_fin": null,
    "commune": "Les Mayons",
    "departement": "Var",
    "lieu_dit": null,
    "lat": 43.2987,
    "lon": 6.3782,
    "surface_ha": 248,
    "cause": "humaine-volontaire",
    "duree_jours": 1,
    "perimetre_geojson": null,
    "source": "estimee",
    "notes": "Estimation basée sur les statistiques annuelles Prométhée (~3500 ha en 1982). Incendies Gorges du Verdon",
    "annee": 1982
  },
  {
    "id": "fire-1982-0105",
    "date": "1982-08-22",
    "date_fin": null,
    "commune": "Lorgues",
    "departement": "Var",
    "lieu_dit": null,
    "lat": 43.4783,
    "lon": 6.3828,
    "surface_ha": 291,
    "cause": "humaine-volontaire",
    "duree_jours": 1,
    "perimetre_geojson": null,
    "source": "estimee",
    "notes": "Estimation basée sur les statistiques annuelles Prométhée (~3500 ha en 1982). Incendies Gorges du Verdon",
    "annee": 1982
  },
  {
    "id": "fire-1982-0106",
    "date": "1982-08-23",
    "date_fin": null,
    "commune": "Riez",
    "departement": "Alpes-de-Haute-Provence",
    "lieu_dit": null,
    "lat": 43.7886,
    "lon": 6.0834,
    "surface_ha": 308,
    "cause": "humaine-accidentelle",
    "duree_jours": 1,
    "perimetre_geojson": null,
    "source": "estimee",
    "notes": "Estimation basée sur les statistiques annuelles Prométhée (~800 ha en 1982). Grand incendie Verdon",
    "annee": 1982
  },
  {
    "id": "fire-1982-0107",
    "date": "1982-09-20",
    "date_fin": null,
    "commune": "Pignans",
    "departement": "Var",
    "lieu_dit": null,
    "lat": 43.3192,
    "lon": 6.2038,
    "surface_ha": 708,
    "cause": "naturelle",
    "duree_jours": 1,
    "perimetre_geojson": null,
    "source": "estimee",
    "notes": "Estimation basée sur les statistiques annuelles Prométhée (~3500 ha en 1982). Incendies Gorges du Verdon",
    "annee": 1982
  },
  {
    "id": "fire-1983-0108",
    "date": "1983-06-21",
    "date_fin": null,
    "commune": "Le Luc",
    "departement": "Var",
    "lieu_dit": null,
    "lat": 43.3672,
    "lon": 6.3069,
    "surface_ha": 411,
    "cause": "humaine-volontaire",
    "duree_jours": 1,
    "perimetre_geojson": null,
    "source": "estimee",
    "notes": "Estimation basée sur les statistiques annuelles Prométhée (~4200 ha en 1983). Incendie Roquebrune ~3000 ha",
    "annee": 1983
  },
  {
    "id": "fire-1983-0109",
    "date": "1983-07-07",
    "date_fin": null,
    "commune": "Rougon",
    "departement": "Alpes-de-Haute-Provence",
    "lieu_dit": null,
    "lat": 43.8135,
    "lon": 6.4233,
    "surface_ha": 307,
    "cause": "inconnue",
    "duree_jours": 1,
    "perimetre_geojson": null,
    "source": "estimee",
    "notes": "Estimation basée sur les statistiques annuelles Prométhée (~600 ha en 1983).",
    "annee": 1983
  },
  {
    "id": "fire-1983-0110",
    "date": "1983-07-11",
    "date_fin": null,
    "commune": "Cogolin",
    "departement": "Var",
    "lieu_dit": null,
    "lat": 43.2488,
    "lon": 6.5537,
    "surface_ha": 192,
    "cause": "humaine-accidentelle",
    "duree_jours": 1,
    "perimetre_geojson": null,
    "source": "estimee",
    "notes": "Estimation basée sur les statistiques annuelles Prométhée (~4200 ha en 1983). Incendie Roquebrune ~3000 ha",
    "annee": 1983
  },
  {
    "id": "fire-1983-0111",
    "date": "1983-07-24",
    "date_fin": null,
    "commune": "Draguignan",
    "departement": "Var",
    "lieu_dit": null,
    "lat": 43.5552,
    "lon": 6.4879,
    "surface_ha": 252,
    "cause": "inconnue",
    "duree_jours": 1,
    "perimetre_geojson": null,
    "source": "estimee",
    "notes": "Estimation basée sur les statistiques annuelles Prométhée (~4200 ha en 1983). Incendie Roquebrune ~3000 ha",
    "annee": 1983
  },
  {
    "id": "fire-1983-0112",
    "date": "1983-07-27",
    "date_fin": null,
    "commune": "Signes",
    "departement": "Var",
    "lieu_dit": null,
    "lat": 43.2874,
    "lon": 5.8538,
    "surface_ha": 1098,
    "cause": "humaine-volontaire",
    "duree_jours": 2,
    "perimetre_geojson": null,
    "source": "estimee",
    "notes": "Estimation basée sur les statistiques annuelles Prométhée (~4200 ha en 1983). Incendie Roquebrune ~3000 ha",
    "annee": 1983
  },
  {
    "id": "fire-1983-0113",
    "date": "1983-08-09",
    "date_fin": null,
    "commune": "Vidauban",
    "departement": "Var",
    "lieu_dit": null,
    "lat": 43.443,
    "lon": 6.4511,
    "surface_ha": 388,
    "cause": "inconnue",
    "duree_jours": 1,
    "perimetre_geojson": null,
    "source": "estimee",
    "notes": "Estimation basée sur les statistiques annuelles Prométhée (~4200 ha en 1983). Incendie Roquebrune ~3000 ha",
    "annee": 1983
  },
  {
    "id": "fire-1983-0114",
    "date": "1983-08-13",
    "date_fin": null,
    "commune": "Le Luc",
    "departement": "Var",
    "lieu_dit": null,
    "lat": 43.3918,
    "lon": 6.285,
    "surface_ha": 439,
    "cause": "humaine-volontaire",
    "duree_jours": 1,
    "perimetre_geojson": null,
    "source": "estimee",
    "notes": "Estimation basée sur les statistiques annuelles Prométhée (~4200 ha en 1983). Incendie Roquebrune ~3000 ha",
    "annee": 1983
  },
  {
    "id": "fire-1983-0115",
    "date": "1983-08-13",
    "date_fin": null,
    "commune": "Esparron-de-Verdon",
    "departement": "Alpes-de-Haute-Provence",
    "lieu_dit": null,
    "lat": 43.7141,
    "lon": 5.9493,
    "surface_ha": 293,
    "cause": "inconnue",
    "duree_jours": 1,
    "perimetre_geojson": null,
    "source": "estimee",
    "notes": "Estimation basée sur les statistiques annuelles Prométhée (~600 ha en 1983).",
    "annee": 1983
  },
  {
    "id": "fire-1983-0116",
    "date": "1983-08-28",
    "date_fin": null,
    "commune": "Saint-Raphaël",
    "departement": "Var",
    "lieu_dit": null,
    "lat": 43.4205,
    "lon": 6.7926,
    "surface_ha": 797,
    "cause": "humaine-volontaire",
    "duree_jours": 1,
    "perimetre_geojson": null,
    "source": "estimee",
    "notes": "Estimation basée sur les statistiques annuelles Prométhée (~4200 ha en 1983). Incendie Roquebrune ~3000 ha",
    "annee": 1983
  },
  {
    "id": "fire-1983-0117",
    "date": "1983-09-10",
    "date_fin": null,
    "commune": "Le Lavandou",
    "departement": "Var",
    "lieu_dit": null,
    "lat": 43.1609,
    "lon": 6.372,
    "surface_ha": 437,
    "cause": "humaine-volontaire",
    "duree_jours": 1,
    "perimetre_geojson": null,
    "source": "estimee",
    "notes": "Estimation basée sur les statistiques annuelles Prométhée (~4200 ha en 1983). Incendie Roquebrune ~3000 ha",
    "annee": 1983
  },
  {
    "id": "fire-1983-0118",
    "date": "1983-09-18",
    "date_fin": null,
    "commune": "Sainte-Maxime",
    "departement": "Var",
    "lieu_dit": null,
    "lat": 43.3224,
    "lon": 6.659,
    "surface_ha": 186,
    "cause": "inconnue",
    "duree_jours": 1,
    "perimetre_geojson": null,
    "source": "estimee",
    "notes": "Estimation basée sur les statistiques annuelles Prométhée (~4200 ha en 1983). Incendie Roquebrune ~3000 ha",
    "annee": 1983
  },
  {
    "id": "fire-1984-0119",
    "date": "1984-07-01",
    "date_fin": null,
    "commune": "Gonfaron",
    "departement": "Var",
    "lieu_dit": null,
    "lat": 43.3299,
    "lon": 6.305,
    "surface_ha": 145,
    "cause": "inconnue",
    "duree_jours": 1,
    "perimetre_geojson": null,
    "source": "estimee",
    "notes": "Estimation basée sur les statistiques annuelles Prométhée (~2800 ha en 1984).",
    "annee": 1984
  },
  {
    "id": "fire-1984-0120",
    "date": "1984-07-07",
    "date_fin": null,
    "commune": "Puget-sur-Argens",
    "departement": "Var",
    "lieu_dit": null,
    "lat": 43.4617,
    "lon": 6.6693,
    "surface_ha": 197,
    "cause": "humaine-volontaire",
    "duree_jours": 1,
    "perimetre_geojson": null,
    "source": "estimee",
    "notes": "Estimation basée sur les statistiques annuelles Prométhée (~2800 ha en 1984).",
    "annee": 1984
  },
  {
    "id": "fire-1984-0121",
    "date": "1984-07-19",
    "date_fin": null,
    "commune": "Roquebrune-sur-Argens",
    "departement": "Var",
    "lieu_dit": null,
    "lat": 43.4575,
    "lon": 6.6556,
    "surface_ha": 464,
    "cause": "humaine-accidentelle",
    "duree_jours": 1,
    "perimetre_geojson": null,
    "source": "estimee",
    "notes": "Estimation basée sur les statistiques annuelles Prométhée (~2800 ha en 1984).",
    "annee": 1984
  },
  {
    "id": "fire-1984-0122",
    "date": "1984-08-08",
    "date_fin": null,
    "commune": "Rians",
    "departement": "Var",
    "lieu_dit": null,
    "lat": 43.6343,
    "lon": 5.7369,
    "surface_ha": 386,
    "cause": "humaine-volontaire",
    "duree_jours": 1,
    "perimetre_geojson": null,
    "source": "estimee",
    "notes": "Estimation basée sur les statistiques annuelles Prométhée (~2800 ha en 1984).",
    "annee": 1984
  },
  {
    "id": "fire-1984-0123",
    "date": "1984-08-10",
    "date_fin": null,
    "commune": "Villeneuve",
    "departement": "Alpes-de-Haute-Provence",
    "lieu_dit": null,
    "lat": 43.9026,
    "lon": 5.8466,
    "surface_ha": 241,
    "cause": "inconnue",
    "duree_jours": 1,
    "perimetre_geojson": null,
    "source": "estimee",
    "notes": "Estimation basée sur les statistiques annuelles Prométhée (~450 ha en 1984).",
    "annee": 1984
  },
  {
    "id": "fire-1984-0124",
    "date": "1984-08-10",
    "date_fin": null,
    "commune": "Vinon-sur-Verdon",
    "departement": "Alpes-de-Haute-Provence",
    "lieu_dit": null,
    "lat": 43.7409,
    "lon": 5.8217,
    "surface_ha": 209,
    "cause": "inconnue",
    "duree_jours": 1,
    "perimetre_geojson": null,
    "source": "estimee",
    "notes": "Estimation basée sur les statistiques annuelles Prométhée (~450 ha en 1984).",
    "annee": 1984
  },
  {
    "id": "fire-1984-0125",
    "date": "1984-08-24",
    "date_fin": null,
    "commune": "Comps-sur-Artuby",
    "departement": "Var",
    "lieu_dit": null,
    "lat": 43.7082,
    "lon": 6.4951,
    "surface_ha": 808,
    "cause": "humaine-volontaire",
    "duree_jours": 1,
    "perimetre_geojson": null,
    "source": "estimee",
    "notes": "Estimation basée sur les statistiques annuelles Prométhée (~2800 ha en 1984).",
    "annee": 1984
  },
  {
    "id": "fire-1984-0126",
    "date": "1984-09-13",
    "date_fin": null,
    "commune": "Pignans",
    "departement": "Var",
    "lieu_dit": null,
    "lat": 43.2723,
    "lon": 6.2137,
    "surface_ha": 800,
    "cause": "humaine-volontaire",
    "duree_jours": 1,
    "perimetre_geojson": null,
    "source": "estimee",
    "notes": "Estimation basée sur les statistiques annuelles Prométhée (~2800 ha en 1984).",
    "annee": 1984
  },
  {
    "id": "fire-1985-0127",
    "date": "1985-07-07",
    "date_fin": null,
    "commune": "Les Mayons",
    "departement": "Var",
    "lieu_dit": null,
    "lat": 43.3083,
    "lon": 6.3317,
    "surface_ha": 100,
    "cause": "inconnue",
    "duree_jours": null,
    "perimetre_geojson": null,
    "source": "estimee",
    "notes": "Estimation basée sur les statistiques annuelles Prométhée (~3500 ha en 1985).",
    "annee": 1985
  },
  {
    "id": "fire-1985-0128",
    "date": "1985-07-14",
    "date_fin": null,
    "commune": "Cuers",
    "departement": "Var",
    "lieu_dit": null,
    "lat": 43.2414,
    "lon": 6.0724,
    "surface_ha": 337,
    "cause": "humaine-accidentelle",
    "duree_jours": 1,
    "perimetre_geojson": null,
    "source": "estimee",
    "notes": "Estimation basée sur les statistiques annuelles Prométhée (~3500 ha en 1985).",
    "annee": 1985
  },
  {
    "id": "fire-1985-0129",
    "date": "1985-07-21",
    "date_fin": null,
    "commune": "Barrême",
    "departement": "Alpes-de-Haute-Provence",
    "lieu_dit": null,
    "lat": 43.9709,
    "lon": 6.3533,
    "surface_ha": 175,
    "cause": "humaine-volontaire",
    "duree_jours": 1,
    "perimetre_geojson": null,
    "source": "estimee",
    "notes": "Estimation basée sur les statistiques annuelles Prométhée (~700 ha en 1985).",
    "annee": 1985
  },
  {
    "id": "fire-1985-0130",
    "date": "1985-07-22",
    "date_fin": null,
    "commune": "Villeneuve",
    "departement": "Alpes-de-Haute-Provence",
    "lieu_dit": null,
    "lat": 43.8718,
    "lon": 5.8833,
    "surface_ha": 144,
    "cause": "humaine-volontaire",
    "duree_jours": 1,
    "perimetre_geojson": null,
    "source": "estimee",
    "notes": "Estimation basée sur les statistiques annuelles Prométhée (~700 ha en 1985).",
    "annee": 1985
  },
  {
    "id": "fire-1985-0131",
    "date": "1985-08-03",
    "date_fin": null,
    "commune": "Callas",
    "departement": "Var",
    "lieu_dit": null,
    "lat": 43.5558,
    "lon": 6.5264,
    "surface_ha": 432,
    "cause": "inconnue",
    "duree_jours": 1,
    "perimetre_geojson": null,
    "source": "estimee",
    "notes": "Estimation basée sur les statistiques annuelles Prométhée (~3500 ha en 1985).",
    "annee": 1985
  },
  {
    "id": "fire-1985-0132",
    "date": "1985-08-09",
    "date_fin": null,
    "commune": "Aups",
    "departement": "Var",
    "lieu_dit": null,
    "lat": 43.6196,
    "lon": 6.2102,
    "surface_ha": 411,
    "cause": "humaine-accidentelle",
    "duree_jours": 1,
    "perimetre_geojson": null,
    "source": "estimee",
    "notes": "Estimation basée sur les statistiques annuelles Prométhée (~3500 ha en 1985).",
    "annee": 1985
  },
  {
    "id": "fire-1985-0133",
    "date": "1985-08-16",
    "date_fin": null,
    "commune": "Montauroux",
    "departement": "Var",
    "lieu_dit": null,
    "lat": 43.6179,
    "lon": 6.7788,
    "surface_ha": 86,
    "cause": "humaine-volontaire",
    "duree_jours": null,
    "perimetre_geojson": null,
    "source": "estimee",
    "notes": "Estimation basée sur les statistiques annuelles Prométhée (~3500 ha en 1985).",
    "annee": 1985
  },
  {
    "id": "fire-1985-0134",
    "date": "1985-08-22",
    "date_fin": null,
    "commune": "Montauroux",
    "departement": "Var",
    "lieu_dit": null,
    "lat": 43.6053,
    "lon": 6.7603,
    "surface_ha": 320,
    "cause": "inconnue",
    "duree_jours": 1,
    "perimetre_geojson": null,
    "source": "estimee",
    "notes": "Estimation basée sur les statistiques annuelles Prométhée (~3500 ha en 1985).",
    "annee": 1985
  },
  {
    "id": "fire-1985-0135",
    "date": "1985-08-27",
    "date_fin": null,
    "commune": "Roquebrune-sur-Argens",
    "departement": "Var",
    "lieu_dit": null,
    "lat": 43.4514,
    "lon": 6.6641,
    "surface_ha": 1200,
    "cause": "inconnue",
    "duree_jours": 2,
    "perimetre_geojson": null,
    "source": "estimee",
    "notes": "Estimation basée sur les statistiques annuelles Prométhée (~3500 ha en 1985).",
    "annee": 1985
  },
  {
    "id": "fire-1985-0136",
    "date": "1985-09-09",
    "date_fin": null,
    "commune": "Tanneron",
    "departement": "Var",
    "lieu_dit": null,
    "lat": 43.6027,
    "lon": 6.8719,
    "surface_ha": 614,
    "cause": "inconnue",
    "duree_jours": 1,
    "perimetre_geojson": null,
    "source": "estimee",
    "notes": "Estimation basée sur les statistiques annuelles Prométhée (~3500 ha en 1985).",
    "annee": 1985
  },
  {
    "id": "fire-1985-0137",
    "date": "1985-09-11",
    "date_fin": null,
    "commune": "Sisteron",
    "departement": "Alpes-de-Haute-Provence",
    "lieu_dit": null,
    "lat": 44.1948,
    "lon": 5.9473,
    "surface_ha": 381,
    "cause": "inconnue",
    "duree_jours": 1,
    "perimetre_geojson": null,
    "source": "estimee",
    "notes": "Estimation basée sur les statistiques annuelles Prométhée (~700 ha en 1985).",
    "annee": 1985
  },
  {
    "id": "fire-1986-0138",
    "date": "1986-06-10",
    "date_fin": null,
    "commune": "Brignoles",
    "departement": "Var",
    "lieu_dit": null,
    "lat": 43.4141,
    "lon": 6.0771,
    "surface_ha": 1788,
    "cause": "humaine-accidentelle",
    "duree_jours": 3,
    "perimetre_geojson": null,
    "source": "estimee",
    "notes": "Estimation basée sur les statistiques annuelles Prométhée (~8000 ha en 1986). Année catastrophique - Estérel",
    "annee": 1986
  },
  {
    "id": "fire-1986-0139",
    "date": "1986-06-10",
    "date_fin": null,
    "commune": "Comps-sur-Artuby",
    "departement": "Var",
    "lieu_dit": null,
    "lat": 43.7048,
    "lon": 6.5211,
    "surface_ha": 258,
    "cause": "humaine-volontaire",
    "duree_jours": 1,
    "perimetre_geojson": null,
    "source": "estimee",
    "notes": "Estimation basée sur les statistiques annuelles Prométhée (~8000 ha en 1986). Année catastrophique - Estérel",
    "annee": 1986
  },
  {
    "id": "fire-1986-0140",
    "date": "1986-06-28",
    "date_fin": null,
    "commune": "Lorgues",
    "departement": "Var",
    "lieu_dit": null,
    "lat": 43.4915,
    "lon": 6.3583,
    "surface_ha": 231,
    "cause": "humaine-accidentelle",
    "duree_jours": 1,
    "perimetre_geojson": null,
    "source": "estimee",
    "notes": "Estimation basée sur les statistiques annuelles Prométhée (~8000 ha en 1986). Année catastrophique - Estérel",
    "annee": 1986
  },
  {
    "id": "fire-1986-0141",
    "date": "1986-07-01",
    "date_fin": null,
    "commune": "Pierrefeu-du-Var",
    "departement": "Var",
    "lieu_dit": null,
    "lat": 43.234,
    "lon": 6.1255,
    "surface_ha": 364,
    "cause": "humaine-accidentelle",
    "duree_jours": 1,
    "perimetre_geojson": null,
    "source": "estimee",
    "notes": "Estimation basée sur les statistiques annuelles Prométhée (~8000 ha en 1986). Année catastrophique - Estérel",
    "annee": 1986
  },
  {
    "id": "fire-1986-0142",
    "date": "1986-07-07",
    "date_fin": null,
    "commune": "Esparron-de-Verdon",
    "departement": "Alpes-de-Haute-Provence",
    "lieu_dit": null,
    "lat": 43.7412,
    "lon": 5.9525,
    "surface_ha": 333,
    "cause": "humaine-accidentelle",
    "duree_jours": 1,
    "perimetre_geojson": null,
    "source": "estimee",
    "notes": "Estimation basée sur les statistiques annuelles Prométhée (~900 ha en 1986).",
    "annee": 1986
  },
  {
    "id": "fire-1986-0143",
    "date": "1986-07-18",
    "date_fin": null,
    "commune": "Gréoux-les-Bains",
    "departement": "Alpes-de-Haute-Provence",
    "lieu_dit": null,
    "lat": 43.7593,
    "lon": 5.8793,
    "surface_ha": 266,
    "cause": "inconnue",
    "duree_jours": 1,
    "perimetre_geojson": null,
    "source": "estimee",
    "notes": "Estimation basée sur les statistiques annuelles Prométhée (~900 ha en 1986).",
    "annee": 1986
  },
  {
    "id": "fire-1986-0144",
    "date": "1986-07-21",
    "date_fin": null,
    "commune": "Le Castellet",
    "departement": "Var",
    "lieu_dit": null,
    "lat": 43.2026,
    "lon": 5.7749,
    "surface_ha": 159,
    "cause": "humaine-volontaire",
    "duree_jours": 1,
    "perimetre_geojson": null,
    "source": "estimee",
    "notes": "Estimation basée sur les statistiques annuelles Prométhée (~8000 ha en 1986). Année catastrophique - Estérel",
    "annee": 1986
  },
  {
    "id": "fire-1986-0145",
    "date": "1986-07-23",
    "date_fin": null,
    "commune": "Les Mées",
    "departement": "Alpes-de-Haute-Provence",
    "lieu_dit": null,
    "lat": 44.0318,
    "lon": 6.0216,
    "surface_ha": 301,
    "cause": "humaine-volontaire",
    "duree_jours": 1,
    "perimetre_geojson": null,
    "source": "estimee",
    "notes": "Estimation basée sur les statistiques annuelles Prométhée (~900 ha en 1986).",
    "annee": 1986
  },
  {
    "id": "fire-1986-0146",
    "date": "1986-08-05",
    "date_fin": null,
    "commune": "Signes",
    "departement": "Var",
    "lieu_dit": null,
    "lat": 43.2803,
    "lon": 5.8556,
    "surface_ha": 2096,
    "cause": "humaine-accidentelle",
    "duree_jours": 4,
    "perimetre_geojson": null,
    "source": "estimee",
    "notes": "Estimation basée sur les statistiques annuelles Prométhée (~8000 ha en 1986). Année catastrophique - Estérel",
    "annee": 1986
  },
  {
    "id": "fire-1986-0147",
    "date": "1986-08-05",
    "date_fin": null,
    "commune": "La Londe-les-Maures",
    "departement": "Var",
    "lieu_dit": null,
    "lat": 43.1248,
    "lon": 6.2629,
    "surface_ha": 1234,
    "cause": "humaine-volontaire",
    "duree_jours": 2,
    "perimetre_geojson": null,
    "source": "estimee",
    "notes": "Estimation basée sur les statistiques annuelles Prométhée (~8000 ha en 1986). Année catastrophique - Estérel",
    "annee": 1986
  },
  {
    "id": "fire-1986-0148",
    "date": "1986-08-09",
    "date_fin": null,
    "commune": "Tourves",
    "departement": "Var",
    "lieu_dit": null,
    "lat": 43.4357,
    "lon": 5.901,
    "surface_ha": 600,
    "cause": "inconnue",
    "duree_jours": 1,
    "perimetre_geojson": null,
    "source": "estimee",
    "notes": "Estimation basée sur les statistiques annuelles Prométhée (~8000 ha en 1986). Année catastrophique - Estérel",
    "annee": 1986
  },
  {
    "id": "fire-1986-0149",
    "date": "1986-08-09",
    "date_fin": null,
    "commune": "Montauroux",
    "departement": "Var",
    "lieu_dit": null,
    "lat": 43.631,
    "lon": 6.7755,
    "surface_ha": 87,
    "cause": "humaine-volontaire",
    "duree_jours": null,
    "perimetre_geojson": null,
    "source": "estimee",
    "notes": "Estimation basée sur les statistiques annuelles Prométhée (~8000 ha en 1986). Année catastrophique - Estérel",
    "annee": 1986
  },
  {
    "id": "fire-1986-0150",
    "date": "1986-08-10",
    "date_fin": "1986-08-15",
    "commune": "Massif de l'Estérel",
    "departement": "Var",
    "lieu_dit": "Massif de l'Estérel",
    "lat": 43.48,
    "lon": 6.8,
    "surface_ha": 7000,
    "cause": "inconnue",
    "duree_jours": 5,
    "perimetre_geojson": null,
    "source": "web",
    "notes": "Incendie catastrophique de 1986 dans l'Estérel.",
    "annee": 1986
  },
  {
    "id": "fire-1986-0151",
    "date": "1986-08-20",
    "date_fin": null,
    "commune": "Hyères",
    "departement": "Var",
    "lieu_dit": null,
    "lat": 43.1422,
    "lon": 6.158,
    "surface_ha": 254,
    "cause": "humaine-accidentelle",
    "duree_jours": 1,
    "perimetre_geojson": null,
    "source": "estimee",
    "notes": "Estimation basée sur les statistiques annuelles Prométhée (~8000 ha en 1986). Année catastrophique - Estérel",
    "annee": 1986
  },
  {
    "id": "fire-1986-0152",
    "date": "1986-08-26",
    "date_fin": null,
    "commune": "Brignoles",
    "departement": "Var",
    "lieu_dit": null,
    "lat": 43.4354,
    "lon": 6.039,
    "surface_ha": 216,
    "cause": "inconnue",
    "duree_jours": 1,
    "perimetre_geojson": null,
    "source": "estimee",
    "notes": "Estimation basée sur les statistiques annuelles Prométhée (~8000 ha en 1986). Année catastrophique - Estérel",
    "annee": 1986
  },
  {
    "id": "fire-1986-0153",
    "date": "1986-09-03",
    "date_fin": null,
    "commune": "Grimaud",
    "departement": "Var",
    "lieu_dit": null,
    "lat": 43.2856,
    "lon": 6.5002,
    "surface_ha": 348,
    "cause": "inconnue",
    "duree_jours": 1,
    "perimetre_geojson": null,
    "source": "estimee",
    "notes": "Estimation basée sur les statistiques annuelles Prométhée (~8000 ha en 1986). Année catastrophique - Estérel",
    "annee": 1986
  },
  {
    "id": "fire-1986-0154",
    "date": "1986-09-10",
    "date_fin": null,
    "commune": "Bormes-les-Mimosas",
    "departement": "Var",
    "lieu_dit": null,
    "lat": 43.159,
    "lon": 6.3582,
    "surface_ha": 365,
    "cause": "humaine-volontaire",
    "duree_jours": 1,
    "perimetre_geojson": null,
    "source": "estimee",
    "notes": "Estimation basée sur les statistiques annuelles Prométhée (~8000 ha en 1986). Année catastrophique - Estérel",
    "annee": 1986
  },
  {
    "id": "fire-1987-0155",
    "date": "1987-06-14",
    "date_fin": null,
    "commune": "Vidauban",
    "departement": "Var",
    "lieu_dit": null,
    "lat": 43.4289,
    "lon": 6.4327,
    "surface_ha": 331,
    "cause": "humaine-accidentelle",
    "duree_jours": 1,
    "perimetre_geojson": null,
    "source": "estimee",
    "notes": "Estimation basée sur les statistiques annuelles Prométhée (~2500 ha en 1987).",
    "annee": 1987
  },
  {
    "id": "fire-1987-0156",
    "date": "1987-07-17",
    "date_fin": null,
    "commune": "Brignoles",
    "departement": "Var",
    "lieu_dit": null,
    "lat": 43.4251,
    "lon": 6.0665,
    "surface_ha": 363,
    "cause": "inconnue",
    "duree_jours": 1,
    "perimetre_geojson": null,
    "source": "estimee",
    "notes": "Estimation basée sur les statistiques annuelles Prométhée (~2500 ha en 1987).",
    "annee": 1987
  },
  {
    "id": "fire-1987-0157",
    "date": "1987-07-20",
    "date_fin": null,
    "commune": "Volx",
    "departement": "Alpes-de-Haute-Provence",
    "lieu_dit": null,
    "lat": 43.8626,
    "lon": 5.8258,
    "surface_ha": 93,
    "cause": "inconnue",
    "duree_jours": null,
    "perimetre_geojson": null,
    "source": "estimee",
    "notes": "Estimation basée sur les statistiques annuelles Prométhée (~500 ha en 1987).",
    "annee": 1987
  },
  {
    "id": "fire-1987-0158",
    "date": "1987-07-22",
    "date_fin": null,
    "commune": "La Môle",
    "departement": "Var",
    "lieu_dit": null,
    "lat": 43.2238,
    "lon": 6.4801,
    "surface_ha": 516,
    "cause": "naturelle",
    "duree_jours": 1,
    "perimetre_geojson": null,
    "source": "estimee",
    "notes": "Estimation basée sur les statistiques annuelles Prométhée (~2500 ha en 1987).",
    "annee": 1987
  },
  {
    "id": "fire-1987-0159",
    "date": "1987-07-28",
    "date_fin": null,
    "commune": "Les Mées",
    "departement": "Alpes-de-Haute-Provence",
    "lieu_dit": null,
    "lat": 44.0154,
    "lon": 6.0033,
    "surface_ha": 407,
    "cause": "humaine-volontaire",
    "duree_jours": 1,
    "perimetre_geojson": null,
    "source": "estimee",
    "notes": "Estimation basée sur les statistiques annuelles Prométhée (~500 ha en 1987).",
    "annee": 1987
  },
  {
    "id": "fire-1987-0160",
    "date": "1987-08-09",
    "date_fin": null,
    "commune": "Montauroux",
    "departement": "Var",
    "lieu_dit": null,
    "lat": 43.6059,
    "lon": 6.7408,
    "surface_ha": 404,
    "cause": "humaine-volontaire",
    "duree_jours": 1,
    "perimetre_geojson": null,
    "source": "estimee",
    "notes": "Estimation basée sur les statistiques annuelles Prométhée (~2500 ha en 1987).",
    "annee": 1987
  },
  {
    "id": "fire-1987-0161",
    "date": "1987-08-21",
    "date_fin": null,
    "commune": "Hyères",
    "departement": "Var",
    "lieu_dit": null,
    "lat": 43.1297,
    "lon": 6.1536,
    "surface_ha": 194,
    "cause": "humaine-accidentelle",
    "duree_jours": 1,
    "perimetre_geojson": null,
    "source": "estimee",
    "notes": "Estimation basée sur les statistiques annuelles Prométhée (~2500 ha en 1987).",
    "annee": 1987
  },
  {
    "id": "fire-1987-0162",
    "date": "1987-09-22",
    "date_fin": null,
    "commune": "La Londe-les-Maures",
    "departement": "Var",
    "lieu_dit": null,
    "lat": 43.1585,
    "lon": 6.2389,
    "surface_ha": 692,
    "cause": "inconnue",
    "duree_jours": 1,
    "perimetre_geojson": null,
    "source": "estimee",
    "notes": "Estimation basée sur les statistiques annuelles Prométhée (~2500 ha en 1987).",
    "annee": 1987
  },
  {
    "id": "fire-1988-0163",
    "date": "1988-06-14",
    "date_fin": null,
    "commune": "Tourves",
    "departement": "Var",
    "lieu_dit": null,
    "lat": 43.4261,
    "lon": 5.9376,
    "surface_ha": 105,
    "cause": "humaine-accidentelle",
    "duree_jours": 1,
    "perimetre_geojson": null,
    "source": "estimee",
    "notes": "Estimation basée sur les statistiques annuelles Prométhée (~1800 ha en 1988).",
    "annee": 1988
  },
  {
    "id": "fire-1988-0164",
    "date": "1988-07-05",
    "date_fin": null,
    "commune": "Sainte-Tulle",
    "departement": "Alpes-de-Haute-Provence",
    "lieu_dit": null,
    "lat": 43.787,
    "lon": 5.7831,
    "surface_ha": 73,
    "cause": "inconnue",
    "duree_jours": null,
    "perimetre_geojson": null,
    "source": "estimee",
    "notes": "Estimation basée sur les statistiques annuelles Prométhée (~400 ha en 1988).",
    "annee": 1988
  },
  {
    "id": "fire-1988-0165",
    "date": "1988-07-12",
    "date_fin": null,
    "commune": "Sainte-Tulle",
    "departement": "Alpes-de-Haute-Provence",
    "lieu_dit": null,
    "lat": 43.7628,
    "lon": 5.7786,
    "surface_ha": 327,
    "cause": "inconnue",
    "duree_jours": 1,
    "perimetre_geojson": null,
    "source": "estimee",
    "notes": "Estimation basée sur les statistiques annuelles Prométhée (~400 ha en 1988).",
    "annee": 1988
  },
  {
    "id": "fire-1988-0166",
    "date": "1988-07-25",
    "date_fin": null,
    "commune": "La Môle",
    "departement": "Var",
    "lieu_dit": null,
    "lat": 43.1819,
    "lon": 6.4492,
    "surface_ha": 416,
    "cause": "humaine-accidentelle",
    "duree_jours": 1,
    "perimetre_geojson": null,
    "source": "estimee",
    "notes": "Estimation basée sur les statistiques annuelles Prométhée (~1800 ha en 1988).",
    "annee": 1988
  },
  {
    "id": "fire-1988-0167",
    "date": "1988-08-10",
    "date_fin": null,
    "commune": "Flassans-sur-Issole",
    "departement": "Var",
    "lieu_dit": null,
    "lat": 43.3756,
    "lon": 6.237,
    "surface_ha": 269,
    "cause": "humaine-accidentelle",
    "duree_jours": 1,
    "perimetre_geojson": null,
    "source": "estimee",
    "notes": "Estimation basée sur les statistiques annuelles Prométhée (~1800 ha en 1988).",
    "annee": 1988
  },
  {
    "id": "fire-1988-0168",
    "date": "1988-08-16",
    "date_fin": null,
    "commune": "Les Adrets-de-l'Estérel",
    "departement": "Var",
    "lieu_dit": null,
    "lat": 43.5194,
    "lon": 6.7841,
    "surface_ha": 299,
    "cause": "humaine-volontaire",
    "duree_jours": 1,
    "perimetre_geojson": null,
    "source": "estimee",
    "notes": "Estimation basée sur les statistiques annuelles Prométhée (~1800 ha en 1988).",
    "annee": 1988
  },
  {
    "id": "fire-1988-0169",
    "date": "1988-08-18",
    "date_fin": null,
    "commune": "Ramatuelle",
    "departement": "Var",
    "lieu_dit": null,
    "lat": 43.2101,
    "lon": 6.6131,
    "surface_ha": 486,
    "cause": "inconnue",
    "duree_jours": 1,
    "perimetre_geojson": null,
    "source": "estimee",
    "notes": "Estimation basée sur les statistiques annuelles Prométhée (~1800 ha en 1988).",
    "annee": 1988
  },
  {
    "id": "fire-1988-0170",
    "date": "1988-09-20",
    "date_fin": null,
    "commune": "Cavalaire-sur-Mer",
    "departement": "Var",
    "lieu_dit": null,
    "lat": 43.168,
    "lon": 6.5411,
    "surface_ha": 225,
    "cause": "humaine-accidentelle",
    "duree_jours": 1,
    "perimetre_geojson": null,
    "source": "estimee",
    "notes": "Estimation basée sur les statistiques annuelles Prométhée (~1800 ha en 1988).",
    "annee": 1988
  },
  {
    "id": "fire-1989-0171",
    "date": "1989-07-11",
    "date_fin": null,
    "commune": "Bargemon",
    "departement": "Var",
    "lieu_dit": null,
    "lat": 43.6051,
    "lon": 6.5444,
    "surface_ha": 110,
    "cause": "inconnue",
    "duree_jours": 1,
    "perimetre_geojson": null,
    "source": "estimee",
    "notes": "Estimation basée sur les statistiques annuelles Prométhée (~7200 ha en 1989). Grands feux massif des Maures",
    "annee": 1989
  },
  {
    "id": "fire-1989-0172",
    "date": "1989-07-22",
    "date_fin": null,
    "commune": "Bargemon",
    "departement": "Var",
    "lieu_dit": null,
    "lat": 43.6355,
    "lon": 6.5637,
    "surface_ha": 59,
    "cause": "inconnue",
    "duree_jours": null,
    "perimetre_geojson": null,
    "source": "estimee",
    "notes": "Estimation basée sur les statistiques annuelles Prométhée (~7200 ha en 1989). Grands feux massif des Maures",
    "annee": 1989
  },
  {
    "id": "fire-1989-0173",
    "date": "1989-07-22",
    "date_fin": null,
    "commune": "Tanneron",
    "departement": "Var",
    "lieu_dit": null,
    "lat": 43.5977,
    "lon": 6.8696,
    "surface_ha": 9,
    "cause": "humaine-accidentelle",
    "duree_jours": null,
    "perimetre_geojson": null,
    "source": "estimee",
    "notes": "Estimation basée sur les statistiques annuelles Prométhée (~7200 ha en 1989). Grands feux massif des Maures",
    "annee": 1989
  },
  {
    "id": "fire-1989-0174",
    "date": "1989-07-23",
    "date_fin": null,
    "commune": "Tanneron",
    "departement": "Var",
    "lieu_dit": null,
    "lat": 43.5929,
    "lon": 6.8731,
    "surface_ha": 2723,
    "cause": "humaine-volontaire",
    "duree_jours": 5,
    "perimetre_geojson": null,
    "source": "estimee",
    "notes": "Estimation basée sur les statistiques annuelles Prométhée (~7200 ha en 1989). Grands feux massif des Maures",
    "annee": 1989
  },
  {
    "id": "fire-1989-0175",
    "date": "1989-07-25",
    "date_fin": null,
    "commune": "Les Arcs",
    "departement": "Var",
    "lieu_dit": null,
    "lat": 43.4847,
    "lon": 6.4746,
    "surface_ha": 2866,
    "cause": "humaine-volontaire",
    "duree_jours": 5,
    "perimetre_geojson": null,
    "source": "estimee",
    "notes": "Estimation basée sur les statistiques annuelles Prométhée (~7200 ha en 1989). Grands feux massif des Maures",
    "annee": 1989
  },
  {
    "id": "fire-1989-0176",
    "date": "1989-07-28",
    "date_fin": null,
    "commune": "Ramatuelle",
    "departement": "Var",
    "lieu_dit": null,
    "lat": 43.1918,
    "lon": 6.6368,
    "surface_ha": 15,
    "cause": "naturelle",
    "duree_jours": null,
    "perimetre_geojson": null,
    "source": "estimee",
    "notes": "Estimation basée sur les statistiques annuelles Prométhée (~7200 ha en 1989). Grands feux massif des Maures",
    "annee": 1989
  },
  {
    "id": "fire-1989-0177",
    "date": "1989-08-04",
    "date_fin": null,
    "commune": "Saint-André-les-Alpes",
    "departement": "Alpes-de-Haute-Provence",
    "lieu_dit": null,
    "lat": 43.9475,
    "lon": 6.5231,
    "surface_ha": 115,
    "cause": "inconnue",
    "duree_jours": 1,
    "perimetre_geojson": null,
    "source": "estimee",
    "notes": "Estimation basée sur les statistiques annuelles Prométhée (~800 ha en 1989).",
    "annee": 1989
  },
  {
    "id": "fire-1989-0178",
    "date": "1989-08-05",
    "date_fin": "1989-08-10",
    "commune": "La Garde-Freinet",
    "departement": "Var",
    "lieu_dit": "Massif des Maures",
    "lat": 43.3181,
    "lon": 6.47,
    "surface_ha": 6000,
    "cause": "inconnue",
    "duree_jours": 5,
    "perimetre_geojson": null,
    "source": "web",
    "notes": "Grand incendie de 1989 dans les Maures.",
    "annee": 1989
  },
  {
    "id": "fire-1989-0179",
    "date": "1989-08-12",
    "date_fin": null,
    "commune": "Rougon",
    "departement": "Alpes-de-Haute-Provence",
    "lieu_dit": null,
    "lat": 43.7959,
    "lon": 6.3897,
    "surface_ha": 326,
    "cause": "humaine-volontaire",
    "duree_jours": 1,
    "perimetre_geojson": null,
    "source": "estimee",
    "notes": "Estimation basée sur les statistiques annuelles Prométhée (~800 ha en 1989).",
    "annee": 1989
  },
  {
    "id": "fire-1989-0180",
    "date": "1989-08-15",
    "date_fin": null,
    "commune": "Rians",
    "departement": "Var",
    "lieu_dit": null,
    "lat": 43.6079,
    "lon": 5.7604,
    "surface_ha": 51,
    "cause": "inconnue",
    "duree_jours": null,
    "perimetre_geojson": null,
    "source": "estimee",
    "notes": "Estimation basée sur les statistiques annuelles Prométhée (~7200 ha en 1989). Grands feux massif des Maures",
    "annee": 1989
  },
  {
    "id": "fire-1989-0181",
    "date": "1989-08-16",
    "date_fin": null,
    "commune": "Majastres",
    "departement": "Alpes-de-Haute-Provence",
    "lieu_dit": null,
    "lat": 43.9147,
    "lon": 6.2772,
    "surface_ha": 359,
    "cause": "inconnue",
    "duree_jours": 1,
    "perimetre_geojson": null,
    "source": "estimee",
    "notes": "Estimation basée sur les statistiques annuelles Prométhée (~800 ha en 1989).",
    "annee": 1989
  },
  {
    "id": "fire-1989-0182",
    "date": "1989-08-25",
    "date_fin": null,
    "commune": "Montauroux",
    "departement": "Var",
    "lieu_dit": null,
    "lat": 43.6402,
    "lon": 6.7561,
    "surface_ha": 17,
    "cause": "humaine-accidentelle",
    "duree_jours": null,
    "perimetre_geojson": null,
    "source": "estimee",
    "notes": "Estimation basée sur les statistiques annuelles Prométhée (~7200 ha en 1989). Grands feux massif des Maures",
    "annee": 1989
  },
  {
    "id": "fire-1989-0183",
    "date": "1989-09-05",
    "date_fin": null,
    "commune": "Bormes-les-Mimosas",
    "departement": "Var",
    "lieu_dit": null,
    "lat": 43.1694,
    "lon": 6.3508,
    "surface_ha": 89,
    "cause": "humaine-accidentelle",
    "duree_jours": null,
    "perimetre_geojson": null,
    "source": "estimee",
    "notes": "Estimation basée sur les statistiques annuelles Prométhée (~7200 ha en 1989). Grands feux massif des Maures",
    "annee": 1989
  },
  {
    "id": "fire-1989-0184",
    "date": "1989-09-11",
    "date_fin": null,
    "commune": "Lorgues",
    "departement": "Var",
    "lieu_dit": null,
    "lat": 43.5026,
    "lon": 6.3412,
    "surface_ha": 12,
    "cause": "humaine-volontaire",
    "duree_jours": null,
    "perimetre_geojson": null,
    "source": "estimee",
    "notes": "Estimation basée sur les statistiques annuelles Prométhée (~7200 ha en 1989). Grands feux massif des Maures",
    "annee": 1989
  },
  {
    "id": "fire-1989-0185",
    "date": "1989-09-16",
    "date_fin": null,
    "commune": "Sainte-Maxime",
    "departement": "Var",
    "lieu_dit": null,
    "lat": 43.2959,
    "lon": 6.6265,
    "surface_ha": 1247,
    "cause": "humaine-volontaire",
    "duree_jours": 2,
    "perimetre_geojson": null,
    "source": "estimee",
    "notes": "Estimation basée sur les statistiques annuelles Prométhée (~7200 ha en 1989). Grands feux massif des Maures",
    "annee": 1989
  },
  {
    "id": "fire-1990-0186",
    "date": "1990-06-26",
    "date_fin": null,
    "commune": "Sainte-Maxime",
    "departement": "Var",
    "lieu_dit": null,
    "lat": 43.2871,
    "lon": 6.6144,
    "surface_ha": 180,
    "cause": "humaine-volontaire",
    "duree_jours": 1,
    "perimetre_geojson": null,
    "source": "estimee",
    "notes": "Estimation basée sur les statistiques annuelles Prométhée (~12000 ha en 1990). Collobrières 10 000 ha - année record",
    "annee": 1990
  },
  {
    "id": "fire-1990-0187",
    "date": "1990-06-27",
    "date_fin": null,
    "commune": "Ramatuelle",
    "departement": "Var",
    "lieu_dit": null,
    "lat": 43.2073,
    "lon": 6.6,
    "surface_ha": 357,
    "cause": "humaine-volontaire",
    "duree_jours": 1,
    "perimetre_geojson": null,
    "source": "estimee",
    "notes": "Estimation basée sur les statistiques annuelles Prométhée (~12000 ha en 1990). Collobrières 10 000 ha - année record",
    "annee": 1990
  },
  {
    "id": "fire-1990-0188",
    "date": "1990-07-07",
    "date_fin": null,
    "commune": "La Môle",
    "departement": "Var",
    "lieu_dit": null,
    "lat": 43.2262,
    "lon": 6.4577,
    "surface_ha": 45,
    "cause": "inconnue",
    "duree_jours": null,
    "perimetre_geojson": null,
    "source": "estimee",
    "notes": "Estimation basée sur les statistiques annuelles Prométhée (~12000 ha en 1990). Collobrières 10 000 ha - année record",
    "annee": 1990
  },
  {
    "id": "fire-1990-0189",
    "date": "1990-07-10",
    "date_fin": null,
    "commune": "Le Castellet",
    "departement": "Var",
    "lieu_dit": null,
    "lat": 43.2003,
    "lon": 5.7604,
    "surface_ha": 168,
    "cause": "inconnue",
    "duree_jours": 1,
    "perimetre_geojson": null,
    "source": "estimee",
    "notes": "Estimation basée sur les statistiques annuelles Prométhée (~12000 ha en 1990). Collobrières 10 000 ha - année record",
    "annee": 1990
  },
  {
    "id": "fire-1990-0190",
    "date": "1990-07-15",
    "date_fin": null,
    "commune": "Blieux",
    "departement": "Alpes-de-Haute-Provence",
    "lieu_dit": null,
    "lat": 43.8559,
    "lon": 6.3701,
    "surface_ha": 359,
    "cause": "naturelle",
    "duree_jours": 1,
    "perimetre_geojson": null,
    "source": "estimee",
    "notes": "Estimation basée sur les statistiques annuelles Prométhée (~1000 ha en 1990). Année très sèche aussi dans 04",
    "annee": 1990
  },
  {
    "id": "fire-1990-0191",
    "date": "1990-07-19",
    "date_fin": null,
    "commune": "Roquebrune-sur-Argens",
    "departement": "Var",
    "lieu_dit": null,
    "lat": 43.4551,
    "lon": 6.6184,
    "surface_ha": 3423,
    "cause": "humaine-volontaire",
    "duree_jours": 6,
    "perimetre_geojson": null,
    "source": "estimee",
    "notes": "Estimation basée sur les statistiques annuelles Prométhée (~12000 ha en 1990). Collobrières 10 000 ha - année record",
    "annee": 1990
  },
  {
    "id": "fire-1990-0192",
    "date": "1990-07-19",
    "date_fin": null,
    "commune": "Saint-Raphaël",
    "departement": "Var",
    "lieu_dit": null,
    "lat": 43.4073,
    "lon": 6.7614,
    "surface_ha": 155,
    "cause": "humaine-volontaire",
    "duree_jours": 1,
    "perimetre_geojson": null,
    "source": "estimee",
    "notes": "Estimation basée sur les statistiques annuelles Prométhée (~12000 ha en 1990). Collobrières 10 000 ha - année record",
    "annee": 1990
  },
  {
    "id": "fire-1990-0193",
    "date": "1990-07-27",
    "date_fin": null,
    "commune": "Aiguines",
    "departement": "Alpes-de-Haute-Provence",
    "lieu_dit": null,
    "lat": 43.7591,
    "lon": 6.2291,
    "surface_ha": 232,
    "cause": "inconnue",
    "duree_jours": 1,
    "perimetre_geojson": null,
    "source": "estimee",
    "notes": "Estimation basée sur les statistiques annuelles Prométhée (~1000 ha en 1990). Année très sèche aussi dans 04",
    "annee": 1990
  },
  {
    "id": "fire-1990-0194",
    "date": "1990-07-27",
    "date_fin": null,
    "commune": "Hyères",
    "departement": "Var",
    "lieu_dit": null,
    "lat": 43.1225,
    "lon": 6.1534,
    "surface_ha": 60,
    "cause": "inconnue",
    "duree_jours": null,
    "perimetre_geojson": null,
    "source": "estimee",
    "notes": "Estimation basée sur les statistiques annuelles Prométhée (~12000 ha en 1990). Collobrières 10 000 ha - année record",
    "annee": 1990
  },
  {
    "id": "fire-1990-0195",
    "date": "1990-08-01",
    "date_fin": "1990-08-15",
    "commune": "Collobrières",
    "departement": "Var",
    "lieu_dit": "Massif des Maures",
    "lat": 43.2378,
    "lon": 6.3097,
    "surface_ha": 10000,
    "cause": "inconnue",
    "duree_jours": 15,
    "perimetre_geojson": null,
    "source": "web",
    "notes": "Été 1990. 10 000 hectares détruits à Collobrières. Record avant 2021.",
    "annee": 1990
  },
  {
    "id": "fire-1990-0196",
    "date": "1990-08-10",
    "date_fin": null,
    "commune": "Ramatuelle",
    "departement": "Var",
    "lieu_dit": null,
    "lat": 43.2037,
    "lon": 6.6399,
    "surface_ha": 3652,
    "cause": "humaine-volontaire",
    "duree_jours": 7,
    "perimetre_geojson": null,
    "source": "estimee",
    "notes": "Estimation basée sur les statistiques annuelles Prométhée (~12000 ha en 1990). Collobrières 10 000 ha - année record",
    "annee": 1990
  },
  {
    "id": "fire-1990-0197",
    "date": "1990-08-10",
    "date_fin": null,
    "commune": "La Garde-Freinet",
    "departement": "Var",
    "lieu_dit": null,
    "lat": 43.3157,
    "lon": 6.48,
    "surface_ha": 3263,
    "cause": "inconnue",
    "duree_jours": 6,
    "perimetre_geojson": null,
    "source": "estimee",
    "notes": "Estimation basée sur les statistiques annuelles Prométhée (~12000 ha en 1990). Collobrières 10 000 ha - année record",
    "annee": 1990
  },
  {
    "id": "fire-1990-0198",
    "date": "1990-08-10",
    "date_fin": null,
    "commune": "La Môle",
    "departement": "Var",
    "lieu_dit": null,
    "lat": 43.2381,
    "lon": 6.4985,
    "surface_ha": 149,
    "cause": "inconnue",
    "duree_jours": 1,
    "perimetre_geojson": null,
    "source": "estimee",
    "notes": "Estimation basée sur les statistiques annuelles Prométhée (~12000 ha en 1990). Collobrières 10 000 ha - année record",
    "annee": 1990
  },
  {
    "id": "fire-1990-0199",
    "date": "1990-08-12",
    "date_fin": null,
    "commune": "Les Adrets-de-l'Estérel",
    "departement": "Var",
    "lieu_dit": null,
    "lat": 43.5113,
    "lon": 6.8057,
    "surface_ha": 47,
    "cause": "humaine-accidentelle",
    "duree_jours": null,
    "perimetre_geojson": null,
    "source": "estimee",
    "notes": "Estimation basée sur les statistiques annuelles Prométhée (~12000 ha en 1990). Collobrières 10 000 ha - année record",
    "annee": 1990
  },
  {
    "id": "fire-1990-0200",
    "date": "1990-08-14",
    "date_fin": null,
    "commune": "Digne-les-Bains",
    "departement": "Alpes-de-Haute-Provence",
    "lieu_dit": null,
    "lat": 44.1133,
    "lon": 6.2388,
    "surface_ha": 345,
    "cause": "inconnue",
    "duree_jours": 1,
    "perimetre_geojson": null,
    "source": "estimee",
    "notes": "Estimation basée sur les statistiques annuelles Prométhée (~1000 ha en 1990). Année très sèche aussi dans 04",
    "annee": 1990
  },
  {
    "id": "fire-1990-0201",
    "date": "1990-08-24",
    "date_fin": null,
    "commune": "Flassans-sur-Issole",
    "departement": "Var",
    "lieu_dit": null,
    "lat": 43.3776,
    "lon": 6.2079,
    "surface_ha": 179,
    "cause": "humaine-volontaire",
    "duree_jours": 1,
    "perimetre_geojson": null,
    "source": "estimee",
    "notes": "Estimation basée sur les statistiques annuelles Prométhée (~12000 ha en 1990). Collobrières 10 000 ha - année record",
    "annee": 1990
  },
  {
    "id": "fire-1990-0202",
    "date": "1990-08-26",
    "date_fin": null,
    "commune": "Saint-Raphaël",
    "departement": "Var",
    "lieu_dit": null,
    "lat": 43.452,
    "lon": 6.7963,
    "surface_ha": 87,
    "cause": "humaine-accidentelle",
    "duree_jours": null,
    "perimetre_geojson": null,
    "source": "estimee",
    "notes": "Estimation basée sur les statistiques annuelles Prométhée (~12000 ha en 1990). Collobrières 10 000 ha - année record",
    "annee": 1990
  },
  {
    "id": "fire-1990-0203",
    "date": "1990-08-27",
    "date_fin": null,
    "commune": "Pierrefeu-du-Var",
    "departement": "Var",
    "lieu_dit": null,
    "lat": 43.2317,
    "lon": 6.1568,
    "surface_ha": 223,
    "cause": "inconnue",
    "duree_jours": 1,
    "perimetre_geojson": null,
    "source": "estimee",
    "notes": "Estimation basée sur les statistiques annuelles Prométhée (~12000 ha en 1990). Collobrières 10 000 ha - année record",
    "annee": 1990
  },
  {
    "id": "fire-1990-0204",
    "date": "1990-09-06",
    "date_fin": null,
    "commune": "Castellane",
    "departement": "Alpes-de-Haute-Provence",
    "lieu_dit": null,
    "lat": 43.8214,
    "lon": 6.5057,
    "surface_ha": 64,
    "cause": "humaine-volontaire",
    "duree_jours": null,
    "perimetre_geojson": null,
    "source": "estimee",
    "notes": "Estimation basée sur les statistiques annuelles Prométhée (~1000 ha en 1990). Année très sèche aussi dans 04",
    "annee": 1990
  },
  {
    "id": "fire-1990-0205",
    "date": "1990-09-28",
    "date_fin": null,
    "commune": "Pignans",
    "departement": "Var",
    "lieu_dit": null,
    "lat": 43.2777,
    "lon": 6.2528,
    "surface_ha": 12,
    "cause": "humaine-accidentelle",
    "duree_jours": null,
    "perimetre_geojson": null,
    "source": "estimee",
    "notes": "Estimation basée sur les statistiques annuelles Prométhée (~12000 ha en 1990). Collobrières 10 000 ha - année record",
    "annee": 1990
  },
  {
    "id": "fire-1991-0206",
    "date": "1991-07-03",
    "date_fin": null,
    "commune": "Le Cannet-des-Maures",
    "departement": "Var",
    "lieu_dit": null,
    "lat": 43.417,
    "lon": 6.3468,
    "surface_ha": 353,
    "cause": "inconnue",
    "duree_jours": 1,
    "perimetre_geojson": null,
    "source": "estimee",
    "notes": "Estimation basée sur les statistiques annuelles Prométhée (~2000 ha en 1991).",
    "annee": 1991
  },
  {
    "id": "fire-1991-0207",
    "date": "1991-07-24",
    "date_fin": null,
    "commune": "Fréjus",
    "departement": "Var",
    "lieu_dit": null,
    "lat": 43.4169,
    "lon": 6.7379,
    "surface_ha": 394,
    "cause": "humaine-volontaire",
    "duree_jours": 1,
    "perimetre_geojson": null,
    "source": "estimee",
    "notes": "Estimation basée sur les statistiques annuelles Prométhée (~2000 ha en 1991).",
    "annee": 1991
  },
  {
    "id": "fire-1991-0208",
    "date": "1991-08-04",
    "date_fin": null,
    "commune": "Brignoles",
    "departement": "Var",
    "lieu_dit": null,
    "lat": 43.3842,
    "lon": 6.0887,
    "surface_ha": 558,
    "cause": "humaine-accidentelle",
    "duree_jours": 1,
    "perimetre_geojson": null,
    "source": "estimee",
    "notes": "Estimation basée sur les statistiques annuelles Prométhée (~2000 ha en 1991).",
    "annee": 1991
  },
  {
    "id": "fire-1991-0209",
    "date": "1991-08-04",
    "date_fin": null,
    "commune": "Sainte-Maxime",
    "departement": "Var",
    "lieu_dit": null,
    "lat": 43.317,
    "lon": 6.6365,
    "surface_ha": 303,
    "cause": "humaine-volontaire",
    "duree_jours": 1,
    "perimetre_geojson": null,
    "source": "estimee",
    "notes": "Estimation basée sur les statistiques annuelles Prométhée (~2000 ha en 1991).",
    "annee": 1991
  },
  {
    "id": "fire-1991-0210",
    "date": "1991-08-07",
    "date_fin": null,
    "commune": "Digne-les-Bains",
    "departement": "Alpes-de-Haute-Provence",
    "lieu_dit": null,
    "lat": 44.0897,
    "lon": 6.2411,
    "surface_ha": 133,
    "cause": "humaine-volontaire",
    "duree_jours": 1,
    "perimetre_geojson": null,
    "source": "estimee",
    "notes": "Estimation basée sur les statistiques annuelles Prométhée (~500 ha en 1991).",
    "annee": 1991
  },
  {
    "id": "fire-1991-0211",
    "date": "1991-08-08",
    "date_fin": null,
    "commune": "Riez",
    "departement": "Alpes-de-Haute-Provence",
    "lieu_dit": null,
    "lat": 43.8102,
    "lon": 6.0803,
    "surface_ha": 367,
    "cause": "inconnue",
    "duree_jours": 1,
    "perimetre_geojson": null,
    "source": "estimee",
    "notes": "Estimation basée sur les statistiques annuelles Prométhée (~500 ha en 1991).",
    "annee": 1991
  },
  {
    "id": "fire-1991-0212",
    "date": "1991-08-14",
    "date_fin": null,
    "commune": "Sainte-Maxime",
    "departement": "Var",
    "lieu_dit": null,
    "lat": 43.3207,
    "lon": 6.641,
    "surface_ha": 38,
    "cause": "humaine-volontaire",
    "duree_jours": null,
    "perimetre_geojson": null,
    "source": "estimee",
    "notes": "Estimation basée sur les statistiques annuelles Prométhée (~2000 ha en 1991).",
    "annee": 1991
  },
  {
    "id": "fire-1991-0213",
    "date": "1991-08-20",
    "date_fin": null,
    "commune": "Fréjus",
    "departement": "Var",
    "lieu_dit": null,
    "lat": 43.4411,
    "lon": 6.7279,
    "surface_ha": 354,
    "cause": "humaine-volontaire",
    "duree_jours": 1,
    "perimetre_geojson": null,
    "source": "estimee",
    "notes": "Estimation basée sur les statistiques annuelles Prométhée (~2000 ha en 1991).",
    "annee": 1991
  },
  {
    "id": "fire-1992-0214",
    "date": "1992-07-28",
    "date_fin": null,
    "commune": "Cogolin",
    "departement": "Var",
    "lieu_dit": null,
    "lat": 43.2446,
    "lon": 6.5256,
    "surface_ha": 616,
    "cause": "humaine-accidentelle",
    "duree_jours": 1,
    "perimetre_geojson": null,
    "source": "estimee",
    "notes": "Estimation basée sur les statistiques annuelles Prométhée (~1500 ha en 1992).",
    "annee": 1992
  },
  {
    "id": "fire-1992-0215",
    "date": "1992-08-01",
    "date_fin": null,
    "commune": "La Croix-Valmer",
    "departement": "Var",
    "lieu_dit": null,
    "lat": 43.227,
    "lon": 6.5441,
    "surface_ha": 478,
    "cause": "humaine-accidentelle",
    "duree_jours": 1,
    "perimetre_geojson": null,
    "source": "estimee",
    "notes": "Estimation basée sur les statistiques annuelles Prométhée (~1500 ha en 1992).",
    "annee": 1992
  },